{"type":"FeatureCollection","name":"SNAP_Retailer_Location_data","crs":{"type":"name","properties":{"name":"urn:ogc:def:crs:OGC:1.3:CRS84"}},"features":[{"type":"Feature","properties":{"Record_ID":1623608,"Store_Name":"Eaj Inc 1","Store_Street_Address":"3420 Georgia Ave NW","Additonal_Address":null,"City":"Washington","State":"DC","Zip_Code":"20010","Zip4":"2502","County":"DIST OF COLUMBIA","Store_Type":"Other","Latitude":38.932568,"Longitude":-77.024025,"Incentive_Program":null,"Grantee_Name":null,"ObjectId":34},"geometry":{"type":"Point","coordinates":[-77.024025,38.932568]}},{"type":"Feature","properties":{"Record_ID":1627847,"Store_Name":"Sonya's Market","Store_Street_Address":"2833 11th St NW","Additonal_Address":null,"City":"Washington","State":"DC","Zip_Code":"20001","Zip4":"3901","County":"DIST OF COLUMBIA","Store_Type":"Convenience Store","Latitude":38.926659,"Longitude":-77.026802,"Incentive_Program":null,"Grantee_Name":null,"ObjectId":678},"geometry":{"type":"Point","coordinates":[-77.026802,38.926659]}},{"type":"Feature","properties":{"Record_ID":1638288,"Store_Name":"Park View Farmers Market","Store_Street_Address":"3400 Georgia Ave NW","Additonal_Address":null,"City":"Washington","State":"DC","Zip_Code":"20010","Zip4":"2502","County":"DIST OF COLUMBIA","Store_Type":"Farmers and Markets","Latitude":38.932289,"Longitude":-77.024132,"Incentive_Program":null,"Grantee_Name":null,"ObjectId":1077},"geometry":{"type":"Point","coordinates":[-77.024132,38.932289]}},{"type":"Feature","properties":{"Record_ID":1631693,"Store_Name":"Kenynur Inc 1","Store_Street_Address":"831 Kennedy St NW","Additonal_Address":null,"City":"Washington","State":"DC","Zip_Code":"20011","Zip4":"2913","County":"DIST OF COLUMBIA","Store_Type":"Convenience Store","Latitude":38.956505,"Longitude":-77.025345,"Incentive_Program":null,"Grantee_Name":null,"ObjectId":1197},"geometry":{"type":"Point","coordinates":[-77.025345,38.956505]}},{"type":"Feature","properties":{"Record_ID":1632493,"Store_Name":"Northwest Liquors","Store_Street_Address":"300 Kennedy St NW","Additonal_Address":null,"City":"Washington","State":"DC","Zip_Code":"20011","Zip4":"6512","County":"DIST OF COLUMBIA","Store_Type":"Convenience Store","Latitude":38.956348,"Longitude":-77.016289,"Incentive_Program":null,"Grantee_Name":null,"ObjectId":1198},"geometry":{"type":"Point","coordinates":[-77.016289,38.956348]}},{"type":"Feature","properties":{"Record_ID":1642028,"Store_Name":"MOM's Organic Market 27","Store_Street_Address":"6250 Connecticut Ave NW","Additonal_Address":null,"City":"Washington","State":"DC","Zip_Code":"20008","Zip4":"    ","County":"DIST OF COLUMBIA","Store_Type":"Super Store","Latitude":38.919537,"Longitude":-77.049133,"Incentive_Program":null,"Grantee_Name":null,"ObjectId":1763},"geometry":{"type":"Point","coordinates":[-77.049133,38.919537]}},{"type":"Feature","properties":{"Record_ID":271569,"Store_Name":"CVS PHARMACY 1354","Store_Street_Address":"2601 Connecticut Ave NW","Additonal_Address":null,"City":"Washington","State":"DC","Zip_Code":"20008","Zip4":"1522","County":"DIST OF COLUMBIA","Store_Type":"Pharmacy","Latitude":38.923637,"Longitude":-77.051537,"Incentive_Program":null,"Grantee_Name":null,"ObjectId":3462},"geometry":{"type":"Point","coordinates":[-77.051537,38.923637]}},{"type":"Feature","properties":{"Record_ID":239273,"Store_Name":"SUPER SAVER GROCERY & DELI","Store_Street_Address":"4413 14th St NW","Additonal_Address":null,"City":"Washington","State":"DC","Zip_Code":"20011","Zip4":"7019","County":"DIST OF COLUMBIA","Store_Type":"Convenience Store","Latitude":38.944702,"Longitude":-77.032684,"Incentive_Program":null,"Grantee_Name":null,"ObjectId":4689},"geometry":{"type":"Point","coordinates":[-77.032684,38.944702]}},{"type":"Feature","properties":{"Record_ID":262870,"Store_Name":"CVS Pharmacy 1333","Store_Street_Address":"3601 12th St NE","Additonal_Address":null,"City":"Washington","State":"DC","Zip_Code":"20017","Zip4":"2547","County":"DIST OF COLUMBIA","Store_Type":"Pharmacy","Latitude":38.933556,"Longitude":-76.990997,"Incentive_Program":null,"Grantee_Name":null,"ObjectId":5445},"geometry":{"type":"Point","coordinates":[-76.990997,38.933556]}},{"type":"Feature","properties":{"Record_ID":275311,"Store_Name":"FRIENDLY FOOD MARKET","Store_Street_Address":"1399 Half St SW","Additonal_Address":null,"City":"Washington","State":"DC","Zip_Code":"20024","Zip4":"4111","County":"DIST OF COLUMBIA","Store_Type":"Convenience Store","Latitude":38.873013,"Longitude":-77.010704,"Incentive_Program":null,"Grantee_Name":null,"ObjectId":6167},"geometry":{"type":"Point","coordinates":[-77.010704,38.873013]}},{"type":"Feature","properties":{"Record_ID":313315,"Store_Name":"CVS PHARMACY  1344","Store_Street_Address":"500 12th St SE","Additonal_Address":null,"City":"Washington","State":"DC","Zip_Code":"20003","Zip4":"2974","County":"DIST OF COLUMBIA","Store_Type":"Pharmacy","Latitude":38.882523,"Longitude":-76.990204,"Incentive_Program":null,"Grantee_Name":null,"ObjectId":7011},"geometry":{"type":"Point","coordinates":[-76.990204,38.882523]}},{"type":"Feature","properties":{"Record_ID":313471,"Store_Name":"SAFEWAY 1445","Store_Street_Address":"2845 Alabama Ave SE","Additonal_Address":null,"City":"Washington","State":"DC","Zip_Code":"20020","Zip4":"3000","County":"DIST OF COLUMBIA","Store_Type":"Supermarket","Latitude":38.860039,"Longitude":-76.967659,"Incentive_Program":null,"Grantee_Name":null,"ObjectId":7023},"geometry":{"type":"Point","coordinates":[-76.967659,38.860039]}},{"type":"Feature","properties":{"Record_ID":273604,"Store_Name":"AMOCO QUICK FOOD SHOPPE","Store_Street_Address":"2600 14th St NW","Additonal_Address":null,"City":"Washington","State":"DC","Zip_Code":"20009","Zip4":"6935","County":"DIST OF COLUMBIA","Store_Type":"Convenience Store","Latitude":38.923706,"Longitude":-77.032143,"Incentive_Program":null,"Grantee_Name":null,"ObjectId":8197},"geometry":{"type":"Point","coordinates":[-77.032143,38.923706]}},{"type":"Feature","properties":{"Record_ID":332541,"Store_Name":"Black Lion Market","Store_Street_Address":"3500 14th St NW","Additonal_Address":null,"City":"Washington","State":"DC","Zip_Code":"20010","Zip4":"1343","County":"DIST OF COLUMBIA","Store_Type":"Grocery Store","Latitude":38.934631,"Longitude":-77.03302,"Incentive_Program":null,"Grantee_Name":null,"ObjectId":8238},"geometry":{"type":"Point","coordinates":[-77.03302,38.934631]}},{"type":"Feature","properties":{"Record_ID":333233,"Store_Name":"CVS Pharmacy 1360","Store_Street_Address":"2834 Alabama Ave SE","Additonal_Address":null,"City":"Washington","State":"DC","Zip_Code":"20020","Zip4":"3004","County":"DIST OF COLUMBIA","Store_Type":"Pharmacy","Latitude":38.860397,"Longitude":-76.966858,"Incentive_Program":null,"Grantee_Name":null,"ObjectId":8736},"geometry":{"type":"Point","coordinates":[-76.966858,38.860397]}},{"type":"Feature","properties":{"Record_ID":357143,"Store_Name":"CVS PHARMACY 1353","Store_Street_Address":"3327 Connecticut Ave NW","Additonal_Address":null,"City":"Washington","State":"DC","Zip_Code":"20008","Zip4":"1302","County":"DIST OF COLUMBIA","Store_Type":"Pharmacy","Latitude":38.934227,"Longitude":-77.05751,"Incentive_Program":null,"Grantee_Name":null,"ObjectId":9861},"geometry":{"type":"Point","coordinates":[-77.05751,38.934227]}},{"type":"Feature","properties":{"Record_ID":355855,"Store_Name":"Bolling JBA Commissary 2506","Store_Street_Address":"185 Chappie James Blvd SW","Additonal_Address":null,"City":"Bolling AFB","State":"DC","Zip_Code":"20032","Zip4":"7717","County":"DIST OF COLUMBIA","Store_Type":"Supermarket","Latitude":38.842285,"Longitude":-77.016418,"Incentive_Program":null,"Grantee_Name":null,"ObjectId":9913},"geometry":{"type":"Point","coordinates":[-77.016418,38.842285]}},{"type":"Feature","properties":{"Record_ID":387561,"Store_Name":"GIANT FOOD 383","Store_Street_Address":"4303 Connecticut Ave NW","Additonal_Address":null,"City":"Washington","State":"DC","Zip_Code":"20008","Zip4":"2305","County":"DIST OF COLUMBIA","Store_Type":"Super Store","Latitude":38.944717,"Longitude":-77.063744,"Incentive_Program":null,"Grantee_Name":null,"ObjectId":10445},"geometry":{"type":"Point","coordinates":[-77.063744,38.944717]}},{"type":"Feature","properties":{"Record_ID":340466,"Store_Name":"THOMAS CALOMIRIS & SONS INC","Store_Street_Address":"225 SEVENTH ST SE","Additonal_Address":"Stand 300","City":"WASHINGTON","State":"DC","Zip_Code":"20003","Zip4":"    ","County":"DIST OF COLUMBIA","Store_Type":"Specialty Store","Latitude":38.887058,"Longitude":-76.996223,"Incentive_Program":null,"Grantee_Name":null,"ObjectId":11197},"geometry":{"type":"Point","coordinates":[-76.996223,38.887058]}},{"type":"Feature","properties":{"Record_ID":302806,"Store_Name":"C & F Seafood Inc.","Store_Street_Address":"1100 MAINE AVE SW","Additonal_Address":"W","City":"WASHINGTON","State":"DC","Zip_Code":"20024","Zip4":"    ","County":"DIST OF COLUMBIA","Store_Type":"Specialty Store","Latitude":38.881012,"Longitude":-77.026161,"Incentive_Program":null,"Grantee_Name":null,"ObjectId":12206},"geometry":{"type":"Point","coordinates":[-77.026161,38.881012]}},{"type":"Feature","properties":{"Record_ID":319086,"Store_Name":"CVS Pharmacy Inc 1351","Store_Street_Address":"1751 Columbia Rd NW","Additonal_Address":null,"City":"Washington","State":"DC","Zip_Code":"20009","Zip4":"2813","County":"DIST OF COLUMBIA","Store_Type":"Pharmacy","Latitude":38.923939,"Longitude":-77.040894,"Incentive_Program":null,"Grantee_Name":null,"ObjectId":12246},"geometry":{"type":"Point","coordinates":[-77.040894,38.923939]}},{"type":"Feature","properties":{"Record_ID":319701,"Store_Name":"SAFEWAY  1276","Store_Street_Address":"6500 Piney Branch Rd NW","Additonal_Address":null,"City":"Washington","State":"DC","Zip_Code":"20012","Zip4":"2900","County":"DIST OF COLUMBIA","Store_Type":"Supermarket","Latitude":38.968662,"Longitude":-77.026176,"Incentive_Program":null,"Grantee_Name":null,"ObjectId":12635},"geometry":{"type":"Point","coordinates":[-77.026176,38.968662]}},{"type":"Feature","properties":{"Record_ID":300163,"Store_Name":"PANAMERICANA GROCERY","Store_Street_Address":"3552 14th St NW","Additonal_Address":null,"City":"Washington","State":"DC","Zip_Code":"20010","Zip4":"1357","County":"DIST OF COLUMBIA","Store_Type":"Super Store","Latitude":38.935623,"Longitude":-77.032784,"Incentive_Program":null,"Grantee_Name":null,"ObjectId":12705},"geometry":{"type":"Point","coordinates":[-77.032784,38.935623]}},{"type":"Feature","properties":{"Record_ID":266409,"Store_Name":"CVS Pharmacy 1365","Store_Street_Address":"1637 P St NW","Additonal_Address":null,"City":"Washington","State":"DC","Zip_Code":"20036","Zip4":"1403","County":"DIST OF COLUMBIA","Store_Type":"Pharmacy","Latitude":38.909687,"Longitude":-77.038177,"Incentive_Program":null,"Grantee_Name":null,"ObjectId":13673},"geometry":{"type":"Point","coordinates":[-77.038177,38.909687]}},{"type":"Feature","properties":{"Record_ID":455108,"Store_Name":"CAPTAIN WHITE SEAFOOD CITY","Store_Street_Address":"1100 Maine Ave SW","Additonal_Address":null,"City":"Washington","State":"DC","Zip_Code":"20024","Zip4":"2423","County":"DIST OF COLUMBIA","Store_Type":"Specialty Store","Latitude":38.881439,"Longitude":-77.028091,"Incentive_Program":null,"Grantee_Name":null,"ObjectId":13880},"geometry":{"type":"Point","coordinates":[-77.028091,38.881439]}},{"type":"Feature","properties":{"Record_ID":456554,"Store_Name":"Giant Food 2379","Store_Street_Address":"3336 Wisconsin Ave NW","Additonal_Address":null,"City":"Washington","State":"DC","Zip_Code":"20016","Zip4":"3808","County":"DIST OF COLUMBIA","Store_Type":"Super Store","Latitude":38.934551,"Longitude":-77.072495,"Incentive_Program":null,"Grantee_Name":null,"ObjectId":14244},"geometry":{"type":"Point","coordinates":[-77.072495,38.934551]}},{"type":"Feature","properties":{"Record_ID":500075,"Store_Name":"Whole Foods Market 10062","Store_Street_Address":"4530 40th St NW","Additonal_Address":null,"City":"Washington","State":"DC","Zip_Code":"20016","Zip4":"1830","County":"DIST OF COLUMBIA","Store_Type":"Super Store","Latitude":38.948841,"Longitude":-77.078758,"Incentive_Program":null,"Grantee_Name":null,"ObjectId":14799},"geometry":{"type":"Point","coordinates":[-77.078758,38.948841]}},{"type":"Feature","properties":{"Record_ID":359823,"Store_Name":"SAFEWAY  4832","Store_Street_Address":"5545 Connecticut Ave NW","Additonal_Address":null,"City":"Washington","State":"DC","Zip_Code":"20015","Zip4":"2606","County":"DIST OF COLUMBIA","Store_Type":"Supermarket","Latitude":38.963856,"Longitude":-77.074875,"Incentive_Program":null,"Grantee_Name":null,"ObjectId":15364},"geometry":{"type":"Point","coordinates":[-77.074875,38.963856]}},{"type":"Feature","properties":{"Record_ID":376802,"Store_Name":"CVS PHARMACY 2174","Store_Street_Address":"4555 Wisconsin Ave NW","Additonal_Address":null,"City":"Washington","State":"DC","Zip_Code":"20016","Zip4":"4619","County":"DIST OF COLUMBIA","Store_Type":"Pharmacy","Latitude":38.949139,"Longitude":-77.080238,"Incentive_Program":null,"Grantee_Name":null,"ObjectId":16190},"geometry":{"type":"Point","coordinates":[-77.080238,38.949139]}},{"type":"Feature","properties":{"Record_ID":419148,"Store_Name":"Yes Organic Market 2","Store_Street_Address":"3425 Connecticut Ave NW","Additonal_Address":null,"City":"Washington","State":"DC","Zip_Code":"20008","Zip4":"1307","County":"DIST OF COLUMBIA","Store_Type":"Supermarket","Latitude":38.935047,"Longitude":-77.057961,"Incentive_Program":null,"Grantee_Name":null,"ObjectId":16697},"geometry":{"type":"Point","coordinates":[-77.057961,38.935047]}},{"type":"Feature","properties":{"Record_ID":330839,"Store_Name":"SAFEWAY  4270","Store_Street_Address":"1601 Maryland Ave NE","Additonal_Address":null,"City":"Washington","State":"DC","Zip_Code":"20002","Zip4":"7606","County":"DIST OF COLUMBIA","Store_Type":"Supermarket","Latitude":38.901287,"Longitude":-76.980392,"Incentive_Program":null,"Grantee_Name":null,"ObjectId":17514},"geometry":{"type":"Point","coordinates":[-76.980392,38.901287]}},{"type":"Feature","properties":{"Record_ID":503944,"Store_Name":"B & T Produce","Store_Street_Address":"2400 E Capitol St NE","Additonal_Address":"Rfk Stadium Parking Lot Stand #13","City":"Washington","State":"DC","Zip_Code":"20003","Zip4":"    ","County":"DIST OF COLUMBIA","Store_Type":"Specialty Store","Latitude":38.889874,"Longitude":-76.972946,"Incentive_Program":null,"Grantee_Name":null,"ObjectId":17638},"geometry":{"type":"Point","coordinates":[-76.972946,38.889874]}},{"type":"Feature","properties":{"Record_ID":518051,"Store_Name":"CVS PHARMACY 1334","Store_Street_Address":"717 14th St NW","Additonal_Address":null,"City":"Washington","State":"DC","Zip_Code":"20005","Zip4":"3200","County":"DIST OF COLUMBIA","Store_Type":"Pharmacy","Latitude":38.898911,"Longitude":-77.031937,"Incentive_Program":null,"Grantee_Name":null,"ObjectId":18825},"geometry":{"type":"Point","coordinates":[-77.031937,38.898911]}},{"type":"Feature","properties":{"Record_ID":482793,"Store_Name":"WEAVER MARKET","Store_Street_Address":"Lot #7 RFK Stadium","Additonal_Address":"618 Gate Rd, Madison, VA 22727 farm","City":"Washington","State":"DC","Zip_Code":"20002","Zip4":"    ","County":"DIST OF COLUMBIA","Store_Type":"Farmers and Markets","Latitude":38.88073,"Longitude":-76.973045,"Incentive_Program":null,"Grantee_Name":null,"ObjectId":19648},"geometry":{"type":"Point","coordinates":[-76.973045,38.88073]}},{"type":"Feature","properties":{"Record_ID":433150,"Store_Name":"Walgreens 17712","Store_Street_Address":"1306 U St NW","Additonal_Address":null,"City":"Washington","State":"DC","Zip_Code":"20009","Zip4":"4445","County":"DIST OF COLUMBIA","Store_Type":"Pharmacy","Latitude":38.916946,"Longitude":-77.0298,"Incentive_Program":null,"Grantee_Name":null,"ObjectId":20156},"geometry":{"type":"Point","coordinates":[-77.0298,38.916946]}},{"type":"Feature","properties":{"Record_ID":432071,"Store_Name":"JOCELYN'S MARKET","Store_Street_Address":"6404 Georgia Ave NW","Additonal_Address":null,"City":"Washington","State":"DC","Zip_Code":"20012","Zip4":"2910","County":"DIST OF COLUMBIA","Store_Type":"Grocery Store","Latitude":38.967648,"Longitude":-77.027527,"Incentive_Program":null,"Grantee_Name":null,"ObjectId":20402},"geometry":{"type":"Point","coordinates":[-77.027527,38.967648]}},{"type":"Feature","properties":{"Record_ID":430404,"Store_Name":"CIRCLE 7 EXPRESS FOOD STORE","Store_Street_Address":"740 Kenilworth Ave NE","Additonal_Address":null,"City":"Washington","State":"DC","Zip_Code":"20019","Zip4":"1856","County":"DIST OF COLUMBIA","Store_Type":"Convenience Store","Latitude":38.900333,"Longitude":-76.946648,"Incentive_Program":null,"Grantee_Name":"DC Central Kitchen Inc","ObjectId":20969},"geometry":{"type":"Point","coordinates":[-76.946648,38.900333]}},{"type":"Feature","properties":{"Record_ID":410257,"Store_Name":"RANDALL GROCERY","Store_Street_Address":"2924 Minnesota Ave SE","Additonal_Address":null,"City":"Washington","State":"DC","Zip_Code":"20019","Zip4":"1165","County":"DIST OF COLUMBIA","Store_Type":"Grocery Store","Latitude":38.876125,"Longitude":-76.965424,"Incentive_Program":null,"Grantee_Name":null,"ObjectId":22060},"geometry":{"type":"Point","coordinates":[-76.965424,38.876125]}},{"type":"Feature","properties":{"Record_ID":507584,"Store_Name":"CVS PHARMACY 1842","Store_Street_Address":"1275 Penn Ave NW","Additonal_Address":null,"City":"Washington","State":"DC","Zip_Code":"20004","Zip4":"2404","County":"DIST OF COLUMBIA","Store_Type":"Pharmacy","Latitude":38.895466,"Longitude":-77.029129,"Incentive_Program":null,"Grantee_Name":null,"ObjectId":22992},"geometry":{"type":"Point","coordinates":[-77.029129,38.895466]}},{"type":"Feature","properties":{"Record_ID":443728,"Store_Name":"Whole Foods Market 10135","Store_Street_Address":"1440 P St NW","Additonal_Address":null,"City":"Washington","State":"DC","Zip_Code":"20005","Zip4":"1908","County":"DIST OF COLUMBIA","Store_Type":"Super Store","Latitude":38.909603,"Longitude":-77.033005,"Incentive_Program":null,"Grantee_Name":null,"ObjectId":24058},"geometry":{"type":"Point","coordinates":[-77.033005,38.909603]}},{"type":"Feature","properties":{"Record_ID":445206,"Store_Name":"SAFEWAY  4202","Store_Street_Address":"1747 Columbia Rd NW","Additonal_Address":null,"City":"Washington","State":"DC","Zip_Code":"20009","Zip4":"2813","County":"DIST OF COLUMBIA","Store_Type":"Supermarket","Latitude":38.924076,"Longitude":-77.040688,"Incentive_Program":null,"Grantee_Name":null,"ObjectId":25981},"geometry":{"type":"Point","coordinates":[-77.040688,38.924076]}},{"type":"Feature","properties":{"Record_ID":601741,"Store_Name":"14TH MINI MARKET","Store_Street_Address":"3904 14th St NW","Additonal_Address":null,"City":"Washington","State":"DC","Zip_Code":"20011","Zip4":"5406","County":"DIST OF COLUMBIA","Store_Type":"Convenience Store","Latitude":38.938801,"Longitude":-77.032761,"Incentive_Program":null,"Grantee_Name":null,"ObjectId":26943},"geometry":{"type":"Point","coordinates":[-77.032761,38.938801]}},{"type":"Feature","properties":{"Record_ID":510840,"Store_Name":"SAFEWAY  923","Store_Street_Address":"1701 Corcoran St NW","Additonal_Address":null,"City":"Washington","State":"DC","Zip_Code":"20009","Zip4":"2405","County":"DIST OF COLUMBIA","Store_Type":"Supermarket","Latitude":38.911907,"Longitude":-77.038948,"Incentive_Program":null,"Grantee_Name":null,"ObjectId":28351},"geometry":{"type":"Point","coordinates":[-77.038948,38.911907]}},{"type":"Feature","properties":{"Record_ID":1590921,"Store_Name":"T Street Market","Store_Street_Address":"321 T St NE","Additonal_Address":null,"City":"Washington","State":"DC","Zip_Code":"20002","Zip4":"1534","County":"DIST OF COLUMBIA","Store_Type":"Convenience Store","Latitude":38.91531,"Longitude":-77.000999,"Incentive_Program":null,"Grantee_Name":null,"ObjectId":29132},"geometry":{"type":"Point","coordinates":[-77.000999,38.91531]}},{"type":"Feature","properties":{"Record_ID":723613,"Store_Name":"CVS PHARMACY  1341","Store_Street_Address":"1199 Vermont Ave NW","Additonal_Address":null,"City":"Washington","State":"DC","Zip_Code":"20005","Zip4":"3519","County":"DIST OF COLUMBIA","Store_Type":"Pharmacy","Latitude":38.904819,"Longitude":-77.032394,"Incentive_Program":null,"Grantee_Name":null,"ObjectId":29769},"geometry":{"type":"Point","coordinates":[-77.032394,38.904819]}},{"type":"Feature","properties":{"Record_ID":837329,"Store_Name":"Super Giant 384","Store_Street_Address":"1535 Alabama Ave SE","Additonal_Address":null,"City":"Washington","State":"DC","Zip_Code":"20032","Zip4":"5054","County":"DIST OF COLUMBIA","Store_Type":"Super Store","Latitude":38.846443,"Longitude":-76.981728,"Incentive_Program":null,"Grantee_Name":"DC Greens Inc","ObjectId":31318},"geometry":{"type":"Point","coordinates":[-76.981728,38.846443]}},{"type":"Feature","properties":{"Record_ID":603219,"Store_Name":"T AND G GROCERY STORE","Store_Street_Address":"1727 N Capitol St NE","Additonal_Address":null,"City":"Washington","State":"DC","Zip_Code":"20002","Zip4":"2160","County":"DIST OF COLUMBIA","Store_Type":"Convenience Store","Latitude":38.913448,"Longitude":-77.008965,"Incentive_Program":null,"Grantee_Name":"DC Central Kitchen Inc","ObjectId":31402},"geometry":{"type":"Point","coordinates":[-77.008965,38.913448]}},{"type":"Feature","properties":{"Record_ID":489947,"Store_Name":"TOWN & COUNTRY MARKET","Store_Street_Address":"823 Upshur St NW","Additonal_Address":null,"City":"Washington","State":"DC","Zip_Code":"20011","Zip4":"5836","County":"DIST OF COLUMBIA","Store_Type":"Convenience Store","Latitude":38.941936,"Longitude":-77.024269,"Incentive_Program":null,"Grantee_Name":null,"ObjectId":33245},"geometry":{"type":"Point","coordinates":[-77.024269,38.941936]}},{"type":"Feature","properties":{"Record_ID":496102,"Store_Name":"CVS Pharmacy 1362","Store_Street_Address":"4309 Connecticut Ave NW","Additonal_Address":null,"City":"Washington","State":"DC","Zip_Code":"20008","Zip4":"2305","County":"DIST OF COLUMBIA","Store_Type":"Pharmacy","Latitude":38.944763,"Longitude":-77.063766,"Incentive_Program":null,"Grantee_Name":null,"ObjectId":33633},"geometry":{"type":"Point","coordinates":[-77.063766,38.944763]}},{"type":"Feature","properties":{"Record_ID":800285,"Store_Name":"Trader Joe's 653","Store_Street_Address":"1101 25th St NW","Additonal_Address":null,"City":"Washington","State":"DC","Zip_Code":"20037","Zip4":"1407","County":"DIST OF COLUMBIA","Store_Type":"Supermarket","Latitude":38.903816,"Longitude":-77.0532,"Incentive_Program":null,"Grantee_Name":null,"ObjectId":34356},"geometry":{"type":"Point","coordinates":[-77.0532,38.903816]}},{"type":"Feature","properties":{"Record_ID":533454,"Store_Name":"SOUTHERN MARYLAND SEAFOOD COMPANY","Store_Street_Address":"225 SEVENTH ST SE","Additonal_Address":"Stand 9-10","City":"WASHINGTON","State":"DC","Zip_Code":"20003","Zip4":"    ","County":"DIST OF COLUMBIA","Store_Type":"Specialty Store","Latitude":38.887058,"Longitude":-76.996223,"Incentive_Program":null,"Grantee_Name":null,"ObjectId":35928},"geometry":{"type":"Point","coordinates":[-76.996223,38.887058]}},{"type":"Feature","properties":{"Record_ID":609050,"Store_Name":"CVS Pharmacy 1364","Store_Street_Address":"6514 Georgia Ave NW","Additonal_Address":null,"City":"Washington","State":"DC","Zip_Code":"20012","Zip4":"2912","County":"DIST OF COLUMBIA","Store_Type":"Pharmacy","Latitude":38.96912,"Longitude":-77.027397,"Incentive_Program":null,"Grantee_Name":null,"ObjectId":36712},"geometry":{"type":"Point","coordinates":[-77.027397,38.96912]}},{"type":"Feature","properties":{"Record_ID":1632581,"Store_Name":"Dc Mini Mart 1","Store_Street_Address":"1410 N Capitol St NW","Additonal_Address":null,"City":"Washington","State":"DC","Zip_Code":"20002","Zip4":"3342","County":"DIST OF COLUMBIA","Store_Type":"Convenience Store","Latitude":38.909004,"Longitude":-77.009384,"Incentive_Program":null,"Grantee_Name":null,"ObjectId":39110},"geometry":{"type":"Point","coordinates":[-77.009384,38.909004]}},{"type":"Feature","properties":{"Record_ID":844439,"Store_Name":"Mellon Convenience Store","Store_Street_Address":"2921 Martin Luther King Jr Ave SE","Additonal_Address":null,"City":"Washington","State":"DC","Zip_Code":"20032","Zip4":"2563","County":"DIST OF COLUMBIA","Store_Type":"Grocery Store","Latitude":38.845291,"Longitude":-76.997292,"Incentive_Program":null,"Grantee_Name":"DC Central Kitchen Inc","ObjectId":40019},"geometry":{"type":"Point","coordinates":[-76.997292,38.845291]}},{"type":"Feature","properties":{"Record_ID":536778,"Store_Name":"CAPITOL SUPERMARKET","Store_Street_Address":"1231 11th St NW","Additonal_Address":null,"City":"Washington","State":"DC","Zip_Code":"20001","Zip4":"4217","County":"DIST OF COLUMBIA","Store_Type":"Supermarket","Latitude":38.906773,"Longitude":-77.026985,"Incentive_Program":null,"Grantee_Name":null,"ObjectId":40550},"geometry":{"type":"Point","coordinates":[-77.026985,38.906773]}},{"type":"Feature","properties":{"Record_ID":844306,"Store_Name":"Target 2259","Store_Street_Address":"3100 14th St NW","Additonal_Address":null,"City":"Washington","State":"DC","Zip_Code":"20010","Zip4":"2415","County":"DIST OF COLUMBIA","Store_Type":"Super Store","Latitude":38.92997,"Longitude":-77.032768,"Incentive_Program":null,"Grantee_Name":null,"ObjectId":40925},"geometry":{"type":"Point","coordinates":[-77.032768,38.92997]}},{"type":"Feature","properties":{"Record_ID":992001,"Store_Name":"CVS 7174","Store_Street_Address":"1200 First St NE","Additonal_Address":null,"City":"Washington","State":"DC","Zip_Code":"20002","Zip4":"    ","County":"DIST OF COLUMBIA","Store_Type":"Pharmacy","Latitude":38.90564,"Longitude":-77.005936,"Incentive_Program":null,"Grantee_Name":null,"ObjectId":41313},"geometry":{"type":"Point","coordinates":[-77.005936,38.90564]}},{"type":"Feature","properties":{"Record_ID":845516,"Store_Name":"Harris Teeter 231","Store_Street_Address":"1631 Kalorama Rd NW","Additonal_Address":"Suite 100","City":"Washington","State":"DC","Zip_Code":"20009","Zip4":"3545","County":"DIST OF COLUMBIA","Store_Type":"Super Store","Latitude":38.922367,"Longitude":-77.037292,"Incentive_Program":null,"Grantee_Name":null,"ObjectId":41477},"geometry":{"type":"Point","coordinates":[-77.037292,38.922367]}},{"type":"Feature","properties":{"Record_ID":616688,"Store_Name":"RAFALS GROCERY & DELI","Store_Street_Address":"233 Florida Ave NW","Additonal_Address":null,"City":"Washington","State":"DC","Zip_Code":"20001","Zip4":"1801","County":"DIST OF COLUMBIA","Store_Type":"Grocery Store","Latitude":38.913467,"Longitude":-77.015221,"Incentive_Program":null,"Grantee_Name":null,"ObjectId":42340},"geometry":{"type":"Point","coordinates":[-77.015221,38.913467]}},{"type":"Feature","properties":{"Record_ID":585548,"Store_Name":"SAFEWAY  1177","Store_Street_Address":"322 40th St NE","Additonal_Address":null,"City":"Washington","State":"DC","Zip_Code":"20019","Zip4":"3372","County":"DIST OF COLUMBIA","Store_Type":"Supermarket","Latitude":38.89304,"Longitude":-76.94722,"Incentive_Program":null,"Grantee_Name":null,"ObjectId":44863},"geometry":{"type":"Point","coordinates":[-76.94722,38.89304]}},{"type":"Feature","properties":{"Record_ID":714989,"Store_Name":"CANALES QUALITY MEATS","Store_Street_Address":"225 7th St SE","Additonal_Address":null,"City":"Washington","State":"DC","Zip_Code":"20003","Zip4":"4323","County":"DIST OF COLUMBIA","Store_Type":"Specialty Store","Latitude":38.886421,"Longitude":-76.996468,"Incentive_Program":null,"Grantee_Name":null,"ObjectId":45055},"geometry":{"type":"Point","coordinates":[-76.996468,38.886421]}},{"type":"Feature","properties":{"Record_ID":638951,"Store_Name":"CVS PHARMACY 2039","Store_Street_Address":"2819 M St NW","Additonal_Address":null,"City":"Washington","State":"DC","Zip_Code":"20007","Zip4":"3712","County":"DIST OF COLUMBIA","Store_Type":"Pharmacy","Latitude":38.905277,"Longitude":-77.057678,"Incentive_Program":null,"Grantee_Name":null,"ObjectId":46562},"geometry":{"type":"Point","coordinates":[-77.057678,38.905277]}},{"type":"Feature","properties":{"Record_ID":649581,"Store_Name":"Freedom Citgo","Store_Street_Address":"1905 9th St NE","Additonal_Address":"Ste A","City":"Washington","State":"DC","Zip_Code":"20018","Zip4":"1013","County":"DIST OF COLUMBIA","Store_Type":"Convenience Store","Latitude":38.91671,"Longitude":-76.993744,"Incentive_Program":null,"Grantee_Name":null,"ObjectId":46838},"geometry":{"type":"Point","coordinates":[-76.993744,38.91671]}},{"type":"Feature","properties":{"Record_ID":728539,"Store_Name":"FOURTH ST MARKET","Store_Street_Address":"6900 4th St NW","Additonal_Address":null,"City":"Washington","State":"DC","Zip_Code":"20012","Zip4":"1904","County":"DIST OF COLUMBIA","Store_Type":"Convenience Store","Latitude":38.973808,"Longitude":-77.018013,"Incentive_Program":null,"Grantee_Name":null,"ObjectId":47425},"geometry":{"type":"Point","coordinates":[-77.018013,38.973808]}},{"type":"Feature","properties":{"Record_ID":725792,"Store_Name":"CVS Pharmacy 1355","Store_Street_Address":"1900 7th St NW","Additonal_Address":null,"City":"Washington","State":"DC","Zip_Code":"20001","Zip4":"3110","County":"DIST OF COLUMBIA","Store_Type":"Pharmacy","Latitude":38.915981,"Longitude":-77.021957,"Incentive_Program":null,"Grantee_Name":null,"ObjectId":47701},"geometry":{"type":"Point","coordinates":[-77.021957,38.915981]}},{"type":"Feature","properties":{"Record_ID":768434,"Store_Name":"CVS PHARMACY INC 22","Store_Street_Address":"320 40th St NE","Additonal_Address":null,"City":"Washington","State":"DC","Zip_Code":"20019","Zip4":"3372","County":"DIST OF COLUMBIA","Store_Type":"Pharmacy","Latitude":38.893005,"Longitude":-76.947235,"Incentive_Program":null,"Grantee_Name":null,"ObjectId":48111},"geometry":{"type":"Point","coordinates":[-76.947235,38.893005]}},{"type":"Feature","properties":{"Record_ID":873666,"Store_Name":"Moruss Seafood & Crabhouse","Store_Street_Address":"2902 Minnesota Ave SE","Additonal_Address":null,"City":"Washington","State":"DC","Zip_Code":"20019","Zip4":"1127","County":"DIST OF COLUMBIA","Store_Type":"Specialty Store","Latitude":38.875668,"Longitude":-76.966431,"Incentive_Program":null,"Grantee_Name":null,"ObjectId":49162},"geometry":{"type":"Point","coordinates":[-76.966431,38.875668]}},{"type":"Feature","properties":{"Record_ID":772221,"Store_Name":"CVS PHARMACY INC 7074","Store_Street_Address":"2240 M St NW","Additonal_Address":null,"City":"Washington","State":"DC","Zip_Code":"20037","Zip4":"1415","County":"DIST OF COLUMBIA","Store_Type":"Pharmacy","Latitude":38.905216,"Longitude":-77.049286,"Incentive_Program":null,"Grantee_Name":null,"ObjectId":49330},"geometry":{"type":"Point","coordinates":[-77.049286,38.905216]}},{"type":"Feature","properties":{"Record_ID":591877,"Store_Name":"GIANT FOOD 375","Store_Street_Address":"1050 Brentwood Rd NE","Additonal_Address":null,"City":"Washington","State":"DC","Zip_Code":"20018","Zip4":"1000","County":"DIST OF COLUMBIA","Store_Type":"Super Store","Latitude":38.918945,"Longitude":-76.991829,"Incentive_Program":null,"Grantee_Name":null,"ObjectId":49450},"geometry":{"type":"Point","coordinates":[-76.991829,38.918945]}},{"type":"Feature","properties":{"Record_ID":994054,"Store_Name":"AST Market","Store_Street_Address":"3182 Bladensburg Rd NE","Additonal_Address":"Ste A","City":"Washington","State":"DC","Zip_Code":"20018","Zip4":"2210","County":"DIST OF COLUMBIA","Store_Type":"Convenience Store","Latitude":38.929256,"Longitude":-76.96003,"Incentive_Program":null,"Grantee_Name":"DC Central Kitchen Inc","ObjectId":50100},"geometry":{"type":"Point","coordinates":[-76.96003,38.929256]}},{"type":"Feature","properties":{"Record_ID":678606,"Store_Name":"MISSOURI AVENUE MARKET","Store_Street_Address":"5900 Georgia Ave NW","Additonal_Address":null,"City":"Washington","State":"DC","Zip_Code":"20011","Zip4":"5102","County":"DIST OF COLUMBIA","Store_Type":"Convenience Store","Latitude":38.961315,"Longitude":-77.028053,"Incentive_Program":null,"Grantee_Name":"DC Central Kitchen Inc","ObjectId":52591},"geometry":{"type":"Point","coordinates":[-77.028053,38.961315]}},{"type":"Feature","properties":{"Record_ID":776138,"Store_Name":"SALVA MEX","Store_Street_Address":"700 Kennedy St NW","Additonal_Address":null,"City":"Washington","State":"DC","Zip_Code":"20011","Zip4":"3032","County":"DIST OF COLUMBIA","Store_Type":"Grocery Store","Latitude":38.956333,"Longitude":-77.022491,"Incentive_Program":null,"Grantee_Name":null,"ObjectId":53273},"geometry":{"type":"Point","coordinates":[-77.022491,38.956333]}},{"type":"Feature","properties":{"Record_ID":784921,"Store_Name":"CVS PHARMACY 2817","Store_Street_Address":"1418 P St NW","Additonal_Address":null,"City":"Washington","State":"DC","Zip_Code":"20005","Zip4":"1908","County":"DIST OF COLUMBIA","Store_Type":"Pharmacy","Latitude":38.909634,"Longitude":-77.032814,"Incentive_Program":null,"Grantee_Name":null,"ObjectId":55834},"geometry":{"type":"Point","coordinates":[-77.032814,38.909634]}},{"type":"Feature","properties":{"Record_ID":784982,"Store_Name":"CVS PHARMACY 1363","Store_Street_Address":"2350 Washington Pl NE","Additonal_Address":"Apt 101","City":"Washington","State":"DC","Zip_Code":"20018","Zip4":"1071","County":"DIST OF COLUMBIA","Store_Type":"Pharmacy","Latitude":38.92104,"Longitude":-76.994812,"Incentive_Program":null,"Grantee_Name":null,"ObjectId":55869},"geometry":{"type":"Point","coordinates":[-76.994812,38.92104]}},{"type":"Feature","properties":{"Record_ID":784991,"Store_Name":"CVS PHARMACY 1338","Store_Street_Address":"661 Pennsylvania Ave SE","Additonal_Address":null,"City":"Washington","State":"DC","Zip_Code":"20003","Zip4":"4303","County":"DIST OF COLUMBIA","Store_Type":"Pharmacy","Latitude":38.884644,"Longitude":-76.996391,"Incentive_Program":null,"Grantee_Name":null,"ObjectId":55878},"geometry":{"type":"Point","coordinates":[-76.996391,38.884644]}},{"type":"Feature","properties":{"Record_ID":516147,"Store_Name":"OGDEN MARKET","Store_Street_Address":"1500 Ogden St NW","Additonal_Address":null,"City":"Washington","State":"DC","Zip_Code":"20010","Zip4":"1235","County":"DIST OF COLUMBIA","Store_Type":"Convenience Store","Latitude":38.935471,"Longitude":-77.034836,"Incentive_Program":null,"Grantee_Name":null,"ObjectId":55910},"geometry":{"type":"Point","coordinates":[-77.034836,38.935471]}},{"type":"Feature","properties":{"Record_ID":785366,"Store_Name":"DC SUPERMARKET","Store_Street_Address":"539 8th St NE","Additonal_Address":null,"City":"Washington","State":"DC","Zip_Code":"20002","Zip4":"5235","County":"DIST OF COLUMBIA","Store_Type":"Convenience Store","Latitude":38.897179,"Longitude":-76.994713,"Incentive_Program":null,"Grantee_Name":null,"ObjectId":55970},"geometry":{"type":"Point","coordinates":[-76.994713,38.897179]}},{"type":"Feature","properties":{"Record_ID":1001295,"Store_Name":"Newton Food Mart","Store_Street_Address":"3600 12th St NE","Additonal_Address":null,"City":"Washington","State":"DC","Zip_Code":"20017","Zip4":"2546","County":"DIST OF COLUMBIA","Store_Type":"Grocery Store","Latitude":38.933739,"Longitude":-76.991127,"Incentive_Program":null,"Grantee_Name":"DC Central Kitchen Inc","ObjectId":56300},"geometry":{"type":"Point","coordinates":[-76.991127,38.933739]}},{"type":"Feature","properties":{"Record_ID":671108,"Store_Name":"SAFEWAY 2912","Store_Street_Address":"1855 Wisconsin Ave NW","Additonal_Address":null,"City":"Washington","State":"DC","Zip_Code":"20007","Zip4":"2302","County":"DIST OF COLUMBIA","Store_Type":"Supermarket","Latitude":38.915676,"Longitude":-77.067703,"Incentive_Program":null,"Grantee_Name":null,"ObjectId":59503},"geometry":{"type":"Point","coordinates":[-77.067703,38.915676]}},{"type":"Feature","properties":{"Record_ID":814377,"Store_Name":"Capitol View Market","Store_Street_Address":"4920 Central Ave NE","Additonal_Address":null,"City":"Washington","State":"DC","Zip_Code":"20019","Zip4":"5362","County":"DIST OF COLUMBIA","Store_Type":"Convenience Store","Latitude":38.890465,"Longitude":-76.93206,"Incentive_Program":null,"Grantee_Name":null,"ObjectId":60173},"geometry":{"type":"Point","coordinates":[-76.93206,38.890465]}},{"type":"Feature","properties":{"Record_ID":1586754,"Store_Name":"24hr Convenience & Deli","Store_Street_Address":"1736 Good Hope Rd SE","Additonal_Address":null,"City":"Washington","State":"DC","Zip_Code":"20020","Zip4":"4708","County":"DIST OF COLUMBIA","Store_Type":"Convenience Store","Latitude":38.866081,"Longitude":-76.979553,"Incentive_Program":null,"Grantee_Name":null,"ObjectId":62405},"geometry":{"type":"Point","coordinates":[-76.979553,38.866081]}},{"type":"Feature","properties":{"Record_ID":816762,"Store_Name":"CVS Pharmacy Inc 7102","Store_Street_Address":"1100 New Jersey Ave SE","Additonal_Address":null,"City":"Washington","State":"DC","Zip_Code":"20003","Zip4":"3302","County":"DIST OF COLUMBIA","Store_Type":"Pharmacy","Latitude":38.876923,"Longitude":-77.00428,"Incentive_Program":null,"Grantee_Name":null,"ObjectId":63381},"geometry":{"type":"Point","coordinates":[-77.00428,38.876923]}},{"type":"Feature","properties":{"Record_ID":818685,"Store_Name":"Los Primos","Store_Street_Address":"3170 Mount Pleasant St NW","Additonal_Address":null,"City":"Washington","State":"DC","Zip_Code":"20010","Zip4":"2747","County":"DIST OF COLUMBIA","Store_Type":"Convenience Store","Latitude":38.93055,"Longitude":-77.038292,"Incentive_Program":null,"Grantee_Name":null,"ObjectId":64000},"geometry":{"type":"Point","coordinates":[-77.038292,38.93055]}},{"type":"Feature","properties":{"Record_ID":834136,"Store_Name":"Family Dollar 6519","Store_Street_Address":"2305 Rhode Island Ave NE","Additonal_Address":null,"City":"Washington","State":"DC","Zip_Code":"20018","Zip4":"2828","County":"DIST OF COLUMBIA","Store_Type":"Convenience Store","Latitude":38.930344,"Longitude":-76.973366,"Incentive_Program":null,"Grantee_Name":null,"ObjectId":66014},"geometry":{"type":"Point","coordinates":[-76.973366,38.930344]}},{"type":"Feature","properties":{"Record_ID":853187,"Store_Name":"Capitol Hill Market","Store_Street_Address":"241 Massachusetts Ave NE","Additonal_Address":null,"City":"Washington","State":"DC","Zip_Code":"20002","Zip4":"4913","County":"DIST OF COLUMBIA","Store_Type":"Convenience Store","Latitude":38.894413,"Longitude":-77.002266,"Incentive_Program":null,"Grantee_Name":null,"ObjectId":66584},"geometry":{"type":"Point","coordinates":[-77.002266,38.894413]}},{"type":"Feature","properties":{"Record_ID":851059,"Store_Name":"FRESHFARM H Street Farmers Market","Store_Street_Address":"624 H St NE","Additonal_Address":"between H St & 13th St NE","City":"Washington","State":"DC","Zip_Code":"20002","Zip4":"4309","County":"DIST OF COLUMBIA","Store_Type":"Farmers and Markets","Latitude":38.900234,"Longitude":-76.997803,"Incentive_Program":null,"Grantee_Name":null,"ObjectId":66866},"geometry":{"type":"Point","coordinates":[-76.997803,38.900234]}},{"type":"Feature","properties":{"Record_ID":835381,"Store_Name":"Family Dollar 6421","Store_Street_Address":"1121 H St NE","Additonal_Address":null,"City":"Washington","State":"DC","Zip_Code":"20002","Zip4":"4442","County":"DIST OF COLUMBIA","Store_Type":"Convenience Store","Latitude":38.900139,"Longitude":-76.990814,"Incentive_Program":null,"Grantee_Name":null,"ObjectId":67148},"geometry":{"type":"Point","coordinates":[-76.990814,38.900139]}},{"type":"Feature","properties":{"Record_ID":673526,"Store_Name":"Union Meat Company","Store_Street_Address":"225 7th St SE","Additonal_Address":null,"City":"Washington","State":"DC","Zip_Code":"20003","Zip4":"    ","County":"DIST OF COLUMBIA","Store_Type":"Specialty Store","Latitude":38.887058,"Longitude":-76.996223,"Incentive_Program":null,"Grantee_Name":null,"ObjectId":67249},"geometry":{"type":"Point","coordinates":[-76.996223,38.887058]}},{"type":"Feature","properties":{"Record_ID":823415,"Store_Name":"International Progresso Market","Store_Street_Address":"3158 Mount Pleasant St NW","Additonal_Address":null,"City":"Washington","State":"DC","Zip_Code":"20010","Zip4":"2747","County":"DIST OF COLUMBIA","Store_Type":"Supermarket","Latitude":38.930279,"Longitude":-77.038002,"Incentive_Program":null,"Grantee_Name":null,"ObjectId":67465},"geometry":{"type":"Point","coordinates":[-77.038002,38.930279]}},{"type":"Feature","properties":{"Record_ID":878635,"Store_Name":"CVS Pharmacy 4546","Store_Street_Address":"2129 14th St NW","Additonal_Address":null,"City":"Washington","State":"DC","Zip_Code":"20009","Zip4":"4411","County":"DIST OF COLUMBIA","Store_Type":"Pharmacy","Latitude":38.918427,"Longitude":-77.031853,"Incentive_Program":null,"Grantee_Name":null,"ObjectId":68880},"geometry":{"type":"Point","coordinates":[-77.031853,38.918427]}},{"type":"Feature","properties":{"Record_ID":751297,"Store_Name":"GIANT FOOD 378","Store_Street_Address":"1345 Park Rd NW","Additonal_Address":null,"City":"Washington","State":"DC","Zip_Code":"20010","Zip4":"2307","County":"DIST OF COLUMBIA","Store_Type":"Super Store","Latitude":38.930901,"Longitude":-77.031128,"Incentive_Program":null,"Grantee_Name":null,"ObjectId":73416},"geometry":{"type":"Point","coordinates":[-77.031128,38.930901]}},{"type":"Feature","properties":{"Record_ID":1291590,"Store_Name":"STREETS MARKET","Store_Street_Address":"1221 Massachusetts Ave NW","Additonal_Address":"Ste 1","City":"Washington","State":"DC","Zip_Code":"20005","Zip4":"5334","County":"DIST OF COLUMBIA","Store_Type":"Supermarket","Latitude":38.904713,"Longitude":-77.029175,"Incentive_Program":null,"Grantee_Name":null,"ObjectId":74101},"geometry":{"type":"Point","coordinates":[-77.029175,38.904713]}},{"type":"Feature","properties":{"Record_ID":1632810,"Store_Name":"Streets Market","Store_Street_Address":"3146 Mount Pleasant St NW","Additonal_Address":null,"City":"Washington","State":"DC","Zip_Code":"20010","Zip4":"2747","County":"DIST OF COLUMBIA","Store_Type":"Supermarket","Latitude":38.930103,"Longitude":-77.038139,"Incentive_Program":null,"Grantee_Name":null,"ObjectId":77471},"geometry":{"type":"Point","coordinates":[-77.038139,38.930103]}},{"type":"Feature","properties":{"Record_ID":885166,"Store_Name":"INTERNATIONAL PROGRESO MARKET 2","Store_Street_Address":"7719 Georgia Ave NW","Additonal_Address":null,"City":"Washington","State":"DC","Zip_Code":"20012","Zip4":"1611","County":"DIST OF COLUMBIA","Store_Type":"Grocery Store","Latitude":38.983124,"Longitude":-77.02652,"Incentive_Program":null,"Grantee_Name":null,"ObjectId":78655},"geometry":{"type":"Point","coordinates":[-77.02652,38.983124]}},{"type":"Feature","properties":{"Record_ID":943309,"Store_Name":"SAFEWAY 2892","Store_Street_Address":"1100 4th St SW","Additonal_Address":null,"City":"Washington","State":"DC","Zip_Code":"20024","Zip4":"4449","County":"DIST OF COLUMBIA","Store_Type":"Supermarket","Latitude":38.877621,"Longitude":-77.017159,"Incentive_Program":null,"Grantee_Name":null,"ObjectId":80150},"geometry":{"type":"Point","coordinates":[-77.017159,38.877621]}},{"type":"Feature","properties":{"Record_ID":906824,"Store_Name":"CVS Pharmacy 1343","Store_Street_Address":"4851 Massachusetts Ave NW","Additonal_Address":null,"City":"Washington","State":"DC","Zip_Code":"20016","Zip4":"2065","County":"DIST OF COLUMBIA","Store_Type":"Pharmacy","Latitude":38.945171,"Longitude":-77.095741,"Incentive_Program":null,"Grantee_Name":null,"ObjectId":80491},"geometry":{"type":"Point","coordinates":[-77.095741,38.945171]}},{"type":"Feature","properties":{"Record_ID":906825,"Store_Name":"CVS Pharmacy 1346","Store_Street_Address":"5550 Connecticut Ave NW","Additonal_Address":null,"City":"Washington","State":"DC","Zip_Code":"20015","Zip4":"2610","County":"DIST OF COLUMBIA","Store_Type":"Pharmacy","Latitude":38.964844,"Longitude":-77.075546,"Incentive_Program":null,"Grantee_Name":null,"ObjectId":80497},"geometry":{"type":"Point","coordinates":[-77.075546,38.964844]}},{"type":"Feature","properties":{"Record_ID":905864,"Store_Name":"Dollar Tree 4081","Store_Street_Address":"1919 Michigan Ave NE","Additonal_Address":null,"City":"Washington","State":"DC","Zip_Code":"20018","Zip4":"3334","County":"DIST OF COLUMBIA","Store_Type":"Convenience Store","Latitude":38.94577,"Longitude":-76.978401,"Incentive_Program":null,"Grantee_Name":null,"ObjectId":80676},"geometry":{"type":"Point","coordinates":[-76.978401,38.94577]}},{"type":"Feature","properties":{"Record_ID":1292674,"Store_Name":"Dc Food Market","Store_Street_Address":"2200 16th St SE","Additonal_Address":null,"City":"Washington","State":"DC","Zip_Code":"20020","Zip4":"4302","County":"DIST OF COLUMBIA","Store_Type":"Convenience Store","Latitude":38.863457,"Longitude":-76.982643,"Incentive_Program":null,"Grantee_Name":"DC Central Kitchen Inc","ObjectId":81362},"geometry":{"type":"Point","coordinates":[-76.982643,38.863457]}},{"type":"Feature","properties":{"Record_ID":1038405,"Store_Name":"Philmatt Afrik Inc dba Afrik International Market 2","Store_Street_Address":"411 Morse St NE","Additonal_Address":null,"City":"Washington","State":"DC","Zip_Code":"20002","Zip4":"7009","County":"DIST OF COLUMBIA","Store_Type":"Other","Latitude":38.907665,"Longitude":-76.999565,"Incentive_Program":null,"Grantee_Name":null,"ObjectId":82269},"geometry":{"type":"Point","coordinates":[-76.999565,38.907665]}},{"type":"Feature","properties":{"Record_ID":1040927,"Store_Name":"Wheeler Market","Store_Street_Address":"4133 Wheeler Rd SE","Additonal_Address":null,"City":"Washington","State":"DC","Zip_Code":"20032","Zip4":"4346","County":"DIST OF COLUMBIA","Store_Type":"Convenience Store","Latitude":38.833698,"Longitude":-76.989937,"Incentive_Program":null,"Grantee_Name":"DC Central Kitchen Inc","ObjectId":82787},"geometry":{"type":"Point","coordinates":[-76.989937,38.833698]}},{"type":"Feature","properties":{"Record_ID":944103,"Store_Name":"CVS Pharmacy 1337","Store_Street_Address":"1403 Wisconsin Ave NW","Additonal_Address":null,"City":"Washington","State":"DC","Zip_Code":"20007","Zip4":"2828","County":"DIST OF COLUMBIA","Store_Type":"Pharmacy","Latitude":38.908516,"Longitude":-77.063873,"Incentive_Program":null,"Grantee_Name":null,"ObjectId":82966},"geometry":{"type":"Point","coordinates":[-77.063873,38.908516]}},{"type":"Feature","properties":{"Record_ID":944747,"Store_Name":"CVS Pharmacy 2104","Store_Street_Address":"5013 Connecticut Ave NW","Additonal_Address":null,"City":"Washington","State":"DC","Zip_Code":"20008","Zip4":"2024","County":"DIST OF COLUMBIA","Store_Type":"Pharmacy","Latitude":38.955116,"Longitude":-77.069824,"Incentive_Program":null,"Grantee_Name":null,"ObjectId":83150},"geometry":{"type":"Point","coordinates":[-77.069824,38.955116]}},{"type":"Feature","properties":{"Record_ID":944752,"Store_Name":"CVS Pharmacy 2204","Store_Street_Address":"4859 Macarthur Blvd NW","Additonal_Address":null,"City":"Washington","State":"DC","Zip_Code":"20007","Zip4":"1564","County":"DIST OF COLUMBIA","Store_Type":"Pharmacy","Latitude":38.916634,"Longitude":-77.095634,"Incentive_Program":null,"Grantee_Name":null,"ObjectId":83153},"geometry":{"type":"Point","coordinates":[-77.095634,38.916634]}},{"type":"Feature","properties":{"Record_ID":944766,"Store_Name":"CVS Pharmacy 2378","Store_Street_Address":"2226 Wisconsin Ave NW","Additonal_Address":null,"City":"Washington","State":"DC","Zip_Code":"20007","Zip4":"4102","County":"DIST OF COLUMBIA","Store_Type":"Pharmacy","Latitude":38.919418,"Longitude":-77.070885,"Incentive_Program":null,"Grantee_Name":null,"ObjectId":83162},"geometry":{"type":"Point","coordinates":[-77.070885,38.919418]}},{"type":"Feature","properties":{"Record_ID":944826,"Store_Name":"CVS Pharmacy 2847","Store_Street_Address":"2000 Pennsylvania Ave NW","Additonal_Address":null,"City":"Washington","State":"DC","Zip_Code":"20006","Zip4":"    ","County":"DIST OF COLUMBIA","Store_Type":"Pharmacy","Latitude":38.900673,"Longitude":-77.044991,"Incentive_Program":null,"Grantee_Name":null,"ObjectId":83190},"geometry":{"type":"Point","coordinates":[-77.044991,38.900673]}},{"type":"Feature","properties":{"Record_ID":907683,"Store_Name":"CVS Pharmacy 1358","Store_Street_Address":"2125 E St NW","Additonal_Address":null,"City":"Washington","State":"DC","Zip_Code":"20037","Zip4":"2988","County":"DIST OF COLUMBIA","Store_Type":"Pharmacy","Latitude":38.896049,"Longitude":-77.047722,"Incentive_Program":null,"Grantee_Name":null,"ObjectId":83653},"geometry":{"type":"Point","coordinates":[-77.047722,38.896049]}},{"type":"Feature","properties":{"Record_ID":1043105,"Store_Name":"The Woodner Market","Store_Street_Address":"3636 16th St NW","Additonal_Address":"Ste AG28","City":"Washington","State":"DC","Zip_Code":"20010","Zip4":"1127","County":"DIST OF COLUMBIA","Store_Type":"Convenience Store","Latitude":38.936302,"Longitude":-77.036484,"Incentive_Program":null,"Grantee_Name":null,"ObjectId":85325},"geometry":{"type":"Point","coordinates":[-77.036484,38.936302]}},{"type":"Feature","properties":{"Record_ID":1041275,"Store_Name":"Parkway Shell Convenience Store","Store_Street_Address":"1765 New York Ave NE","Additonal_Address":null,"City":"Washington","State":"DC","Zip_Code":"20002","Zip4":"1727","County":"DIST OF COLUMBIA","Store_Type":"Convenience Store","Latitude":38.917194,"Longitude":-76.979263,"Incentive_Program":null,"Grantee_Name":null,"ObjectId":85960},"geometry":{"type":"Point","coordinates":[-76.979263,38.917194]}},{"type":"Feature","properties":{"Record_ID":911171,"Store_Name":"Lena Market","Store_Street_Address":"1206 Underwood St NW","Additonal_Address":null,"City":"Washington","State":"DC","Zip_Code":"20012","Zip4":"2924","County":"DIST OF COLUMBIA","Store_Type":"Other","Latitude":38.968765,"Longitude":-77.027832,"Incentive_Program":null,"Grantee_Name":null,"ObjectId":88194},"geometry":{"type":"Point","coordinates":[-77.027832,38.968765]}},{"type":"Feature","properties":{"Record_ID":926829,"Store_Name":"Walgreens 19076","Store_Street_Address":"1815 Connecticut Ave NW","Additonal_Address":null,"City":"Washington","State":"DC","Zip_Code":"20009","Zip4":"5702","County":"DIST OF COLUMBIA","Store_Type":"Pharmacy","Latitude":38.914631,"Longitude":-77.04615,"Incentive_Program":null,"Grantee_Name":null,"ObjectId":88463},"geometry":{"type":"Point","coordinates":[-77.04615,38.914631]}},{"type":"Feature","properties":{"Record_ID":926839,"Store_Name":"Walgreens 19132","Store_Street_Address":"3301 New Mexico Ave NW","Additonal_Address":null,"City":"Washington","State":"DC","Zip_Code":"20016","Zip4":"    ","County":"DIST OF COLUMBIA","Store_Type":"Pharmacy","Latitude":38.933529,"Longitude":-77.085815,"Incentive_Program":null,"Grantee_Name":null,"ObjectId":88481},"geometry":{"type":"Point","coordinates":[-77.085815,38.933529]}},{"type":"Feature","properties":{"Record_ID":1587945,"Store_Name":"Freshfarm Centronia Cardozo Market","Store_Street_Address":"1200 Clifton St NW","Additonal_Address":null,"City":"Washington","State":"DC","Zip_Code":"20009","Zip4":"7099","County":"DIST OF COLUMBIA","Store_Type":"Farmers and Markets","Latitude":38.92218,"Longitude":-77.028473,"Incentive_Program":null,"Grantee_Name":null,"ObjectId":88507},"geometry":{"type":"Point","coordinates":[-77.028473,38.92218]}},{"type":"Feature","properties":{"Record_ID":961584,"Store_Name":"CVS 2330","Store_Street_Address":"110 Carroll St NW","Additonal_Address":null,"City":"Washington","State":"DC","Zip_Code":"20012","Zip4":"2001","County":"DIST OF COLUMBIA","Store_Type":"Pharmacy","Latitude":38.974747,"Longitude":-77.014069,"Incentive_Program":null,"Grantee_Name":null,"ObjectId":89258},"geometry":{"type":"Point","coordinates":[-77.014069,38.974747]}},{"type":"Feature","properties":{"Record_ID":961874,"Store_Name":"Lees Mini Market","Store_Street_Address":"3853 Alabama Ave SE","Additonal_Address":null,"City":"Washington","State":"DC","Zip_Code":"20020","Zip4":"1001","County":"DIST OF COLUMBIA","Store_Type":"Convenience Store","Latitude":38.866287,"Longitude":-76.950394,"Incentive_Program":null,"Grantee_Name":null,"ObjectId":89597},"geometry":{"type":"Point","coordinates":[-76.950394,38.866287]}},{"type":"Feature","properties":{"Record_ID":960100,"Store_Name":"Dollar Plus Food Store","Store_Street_Address":"2529 Pennsylvania Ave SE","Additonal_Address":null,"City":"Washington","State":"DC","Zip_Code":"20020","Zip4":"6713","County":"DIST OF COLUMBIA","Store_Type":"Grocery Store","Latitude":38.873135,"Longitude":-76.970078,"Incentive_Program":null,"Grantee_Name":"DC Central Kitchen Inc","ObjectId":89627},"geometry":{"type":"Point","coordinates":[-76.970078,38.873135]}},{"type":"Feature","properties":{"Record_ID":864911,"Store_Name":"SAFEWAY 2737","Store_Street_Address":"490 L Street Northwest","Additonal_Address":null,"City":"Washington","State":"DC","Zip_Code":"20001","Zip4":"    ","County":"DIST OF COLUMBIA","Store_Type":"Supermarket","Latitude":38.903664,"Longitude":-77.018066,"Incentive_Program":null,"Grantee_Name":null,"ObjectId":89745},"geometry":{"type":"Point","coordinates":[-77.018066,38.903664]}},{"type":"Feature","properties":{"Record_ID":1098973,"Store_Name":"Circle Seven Food And Grocery Market","Store_Street_Address":"1211 Mount Olivet Rd Ne","Additonal_Address":null,"City":"Washington","State":"DC","Zip_Code":"20002","Zip4":"7802","County":"DIST OF COLUMBIA","Store_Type":"Convenience Store","Latitude":38.909973,"Longitude":-76.984444,"Incentive_Program":null,"Grantee_Name":"DC Central Kitchen Inc","ObjectId":90425},"geometry":{"type":"Point","coordinates":[-76.984444,38.909973]}},{"type":"Feature","properties":{"Record_ID":1298107,"Store_Name":"Menick's Market","Store_Street_Address":"4401 Nannie Helen Burroughs Ave Ne","Additonal_Address":null,"City":"Washington","State":"DC","Zip_Code":"20019","Zip4":"3644","County":"DIST OF COLUMBIA","Store_Type":"Convenience Store","Latitude":38.900448,"Longitude":-76.93914,"Incentive_Program":null,"Grantee_Name":null,"ObjectId":91391},"geometry":{"type":"Point","coordinates":[-76.93914,38.900448]}},{"type":"Feature","properties":{"Record_ID":1441084,"Store_Name":"7-ELEVEN 36701J","Store_Street_Address":"4854 N H Burroughs Ave NE","Additonal_Address":"NANNIE","City":"Washington","State":"DC","Zip_Code":"20019","Zip4":"3634","County":"DIST OF COLUMBIA","Store_Type":"Convenience Store","Latitude":38.898811,"Longitude":-76.932426,"Incentive_Program":null,"Grantee_Name":null,"ObjectId":91485},"geometry":{"type":"Point","coordinates":[-76.932426,38.898811]}},{"type":"Feature","properties":{"Record_ID":1298557,"Store_Name":"Trader Joe's 622","Store_Street_Address":"750 Pennsylvania Ave SE","Additonal_Address":null,"City":"Washington","State":"DC","Zip_Code":"20003","Zip4":"2199","County":"DIST OF COLUMBIA","Store_Type":"Supermarket","Latitude":38.884556,"Longitude":-76.99543,"Incentive_Program":null,"Grantee_Name":null,"ObjectId":91577},"geometry":{"type":"Point","coordinates":[-76.99543,38.884556]}},{"type":"Feature","properties":{"Record_ID":1441221,"Store_Name":"Elmira Market","Store_Street_Address":"4401 S Capitol St SW","Additonal_Address":null,"City":"Washington","State":"DC","Zip_Code":"20032","Zip4":"2107","County":"DIST OF COLUMBIA","Store_Type":"Grocery Store","Latitude":38.825893,"Longitude":-77.007629,"Incentive_Program":null,"Grantee_Name":"DC Central Kitchen Inc","ObjectId":91825},"geometry":{"type":"Point","coordinates":[-77.007629,38.825893]}},{"type":"Feature","properties":{"Record_ID":870678,"Store_Name":"Walgreens 10071","Store_Street_Address":"1217 22nd St NW","Additonal_Address":null,"City":"Washington","State":"DC","Zip_Code":"20037","Zip4":"1299","County":"DIST OF COLUMBIA","Store_Type":"Pharmacy","Latitude":38.90559,"Longitude":-77.048729,"Incentive_Program":null,"Grantee_Name":null,"ObjectId":94642},"geometry":{"type":"Point","coordinates":[-77.048729,38.90559]}},{"type":"Feature","properties":{"Record_ID":1054306,"Store_Name":"Liffs Market","Store_Street_Address":"600 Alabama Ave SE","Additonal_Address":null,"City":"Washington","State":"DC","Zip_Code":"20032","Zip4":"4103","County":"DIST OF COLUMBIA","Store_Type":"Convenience Store","Latitude":38.843426,"Longitude":-76.997589,"Incentive_Program":null,"Grantee_Name":"DC Central Kitchen Inc","ObjectId":96255},"geometry":{"type":"Point","coordinates":[-76.997589,38.843426]}},{"type":"Feature","properties":{"Record_ID":1444543,"Store_Name":"Ward 8 Farmers Market","Store_Street_Address":"3200 6th St SE","Additonal_Address":null,"City":"Washington","State":"DC","Zip_Code":"20032","Zip4":"3801","County":"DIST OF COLUMBIA","Store_Type":"Farmers and Markets","Latitude":38.842552,"Longitude":-76.998169,"Incentive_Program":null,"Grantee_Name":null,"ObjectId":98064},"geometry":{"type":"Point","coordinates":[-76.998169,38.842552]}},{"type":"Feature","properties":{"Record_ID":1136881,"Store_Name":"Trader Joe's 662","Store_Street_Address":"1914 14th St NW","Additonal_Address":null,"City":"Washington","State":"DC","Zip_Code":"20009","Zip4":"4431","County":"DIST OF COLUMBIA","Store_Type":"Supermarket","Latitude":38.916092,"Longitude":-77.031975,"Incentive_Program":null,"Grantee_Name":null,"ObjectId":99704},"geometry":{"type":"Point","coordinates":[-77.031975,38.916092]}},{"type":"Feature","properties":{"Record_ID":1141477,"Store_Name":"Texas Convenience Store","Store_Street_Address":"4350 Texas Ave SE","Additonal_Address":null,"City":"Washington","State":"DC","Zip_Code":"20019","Zip4":"4260","County":"DIST OF COLUMBIA","Store_Type":"Convenience Store","Latitude":38.883202,"Longitude":-76.941833,"Incentive_Program":null,"Grantee_Name":"DC Central Kitchen Inc","ObjectId":99950},"geometry":{"type":"Point","coordinates":[-76.941833,38.883202]}},{"type":"Feature","properties":{"Record_ID":1145341,"Store_Name":"Grocery And Bakery","Store_Street_Address":"6224 Georgia Ave NW","Additonal_Address":null,"City":"Washington","State":"DC","Zip_Code":"20011","Zip4":"5112","County":"DIST OF COLUMBIA","Store_Type":"Other","Latitude":38.965729,"Longitude":-77.027901,"Incentive_Program":null,"Grantee_Name":null,"ObjectId":102240},"geometry":{"type":"Point","coordinates":[-77.027901,38.965729]}},{"type":"Feature","properties":{"Record_ID":1142321,"Store_Name":"FRESHFARM Penn Quarter Farmers Market","Store_Street_Address":"400 9th St NW","Additonal_Address":"between D & E St","City":"District of Columbia","State":"DC","Zip_Code":"20004","Zip4":"    ","County":"DIST OF COLUMBIA","Store_Type":"Farmers and Markets","Latitude":38.894855,"Longitude":-77.02404,"Incentive_Program":null,"Grantee_Name":null,"ObjectId":102333},"geometry":{"type":"Point","coordinates":[-77.02404,38.894855]}},{"type":"Feature","properties":{"Record_ID":1142643,"Store_Name":"Economy Market","Store_Street_Address":"1804 D St NE","Additonal_Address":null,"City":"Washington","State":"DC","Zip_Code":"20002","Zip4":"6606","County":"DIST OF COLUMBIA","Store_Type":"Convenience Store","Latitude":38.894981,"Longitude":-76.978706,"Incentive_Program":null,"Grantee_Name":"DC Central Kitchen Inc","ObjectId":102568},"geometry":{"type":"Point","coordinates":[-76.978706,38.894981]}},{"type":"Feature","properties":{"Record_ID":1145699,"Store_Name":"FRESHFARM Foggy Bottom Farmers Market","Store_Street_Address":"2300 I Street  Nw","Additonal_Address":"23rd & I st NW Walkway","City":"Washington","State":"DC","Zip_Code":"20052","Zip4":"    ","County":"DIST OF COLUMBIA","Store_Type":"Farmers and Markets","Latitude":38.900665,"Longitude":-77.050789,"Incentive_Program":null,"Grantee_Name":null,"ObjectId":102628},"geometry":{"type":"Point","coordinates":[-77.050789,38.900665]}},{"type":"Feature","properties":{"Record_ID":1145702,"Store_Name":"FRESHFARM By The White House Farmers Market","Store_Street_Address":"800 Vermont Ave  Nw","Additonal_Address":"between H St NW & I St NW","City":"Washington","State":"DC","Zip_Code":"20420","Zip4":"    ","County":"DIST OF COLUMBIA","Store_Type":"Farmers and Markets","Latitude":38.900627,"Longitude":-77.03492,"Incentive_Program":null,"Grantee_Name":null,"ObjectId":102630},"geometry":{"type":"Point","coordinates":[-77.03492,38.900627]}},{"type":"Feature","properties":{"Record_ID":1153461,"Store_Name":"FRESHFARM CityCenterDC Farmesr Market ","Store_Street_Address":"1098 New York Ave NW","Additonal_Address":null,"City":"District of Columbia","State":"DC","Zip_Code":"20001","Zip4":"    ","County":"DIST OF COLUMBIA","Store_Type":"Farmers and Markets","Latitude":38.901012,"Longitude":-77.026932,"Incentive_Program":null,"Grantee_Name":null,"ObjectId":103198},"geometry":{"type":"Point","coordinates":[-77.026932,38.901012]}},{"type":"Feature","properties":{"Record_ID":1153466,"Store_Name":"FRESHFARM Mount Vernon Triangle Farmers Market ","Store_Street_Address":"1025 5th St Nw","Additonal_Address":null,"City":"Washington","State":"DC","Zip_Code":"20001","Zip4":"2517","County":"DIST OF COLUMBIA","Store_Type":"Farmers and Markets","Latitude":38.903103,"Longitude":-77.01889,"Incentive_Program":null,"Grantee_Name":null,"ObjectId":103200},"geometry":{"type":"Point","coordinates":[-77.01889,38.903103]}},{"type":"Feature","properties":{"Record_ID":1082477,"Store_Name":"Costco Wholesale 1120","Store_Street_Address":"2441 Market St NE","Additonal_Address":null,"City":"Washington","State":"DC","Zip_Code":"20018","Zip4":"9045","County":"DIST OF COLUMBIA","Store_Type":"Super Store","Latitude":38.920975,"Longitude":-76.952293,"Incentive_Program":null,"Grantee_Name":null,"ObjectId":103288},"geometry":{"type":"Point","coordinates":[-76.952293,38.920975]}},{"type":"Feature","properties":{"Record_ID":1149638,"Store_Name":"Arcadia Center","Store_Street_Address":"1800 Perry St NE","Additonal_Address":null,"City":"Washington","State":"DC","Zip_Code":"20018","Zip4":"2742","County":"DIST OF COLUMBIA","Store_Type":"Farmers and Markets","Latitude":38.936806,"Longitude":-76.9786,"Incentive_Program":null,"Grantee_Name":null,"ObjectId":103419},"geometry":{"type":"Point","coordinates":[-76.9786,38.936806]}},{"type":"Feature","properties":{"Record_ID":1019025,"Store_Name":"Whole Foods Market 10414","Store_Street_Address":"2201 I St NW","Additonal_Address":null,"City":"Washington","State":"DC","Zip_Code":"20052","Zip4":"0095","County":"DIST OF COLUMBIA","Store_Type":"Super Store","Latitude":38.900726,"Longitude":-77.049484,"Incentive_Program":null,"Grantee_Name":null,"ObjectId":105694},"geometry":{"type":"Point","coordinates":[-77.049484,38.900726]}},{"type":"Feature","properties":{"Record_ID":1115340,"Store_Name":"Giant 2376","Store_Street_Address":"1400 7th St NW","Additonal_Address":null,"City":"Washington","State":"DC","Zip_Code":"20001","Zip4":"    ","County":"DIST OF COLUMBIA","Store_Type":"Super Store","Latitude":38.908989,"Longitude":-77.02195,"Incentive_Program":null,"Grantee_Name":null,"ObjectId":106826},"geometry":{"type":"Point","coordinates":[-77.02195,38.908989]}},{"type":"Feature","properties":{"Record_ID":1241868,"Store_Name":"Pro Bono Enterprises Inc","Store_Street_Address":"5403 Georgia Ave NW","Additonal_Address":null,"City":"Washington","State":"DC","Zip_Code":"20011","Zip4":"3909","County":"DIST OF COLUMBIA","Store_Type":"Grocery Store","Latitude":38.95536,"Longitude":-77.027649,"Incentive_Program":null,"Grantee_Name":null,"ObjectId":107930},"geometry":{"type":"Point","coordinates":[-77.027649,38.95536]}},{"type":"Feature","properties":{"Record_ID":964658,"Store_Name":"CVS 2787","Store_Street_Address":"3642 Georgia Ave","Additonal_Address":null,"City":"Washington","State":"DC","Zip_Code":"20010","Zip4":"    ","County":"DIST OF COLUMBIA","Store_Type":"Pharmacy","Latitude":38.935356,"Longitude":-77.024178,"Incentive_Program":null,"Grantee_Name":null,"ObjectId":108592},"geometry":{"type":"Point","coordinates":[-77.024178,38.935356]}},{"type":"Feature","properties":{"Record_ID":1154107,"Store_Name":"Safeway 2808","Store_Street_Address":"3830 Georgia Ave NW","Additonal_Address":null,"City":"Washington","State":"DC","Zip_Code":"20011","Zip4":"5841","County":"DIST OF COLUMBIA","Store_Type":"Supermarket","Latitude":38.938416,"Longitude":-77.024666,"Incentive_Program":null,"Grantee_Name":null,"ObjectId":108972},"geometry":{"type":"Point","coordinates":[-77.024666,38.938416]}},{"type":"Feature","properties":{"Record_ID":1157122,"Store_Name":"Dollar Tree 5389","Store_Street_Address":"1548 Benning Rd NE","Additonal_Address":null,"City":"Washington","State":"DC","Zip_Code":"20002","Zip4":"    ","County":"DIST OF COLUMBIA","Store_Type":"Convenience Store","Latitude":38.900387,"Longitude":-76.980423,"Incentive_Program":null,"Grantee_Name":null,"ObjectId":109469},"geometry":{"type":"Point","coordinates":[-76.980423,38.900387]}},{"type":"Feature","properties":{"Record_ID":1025116,"Store_Name":"ALDI 71014 71014","Store_Street_Address":"901 17th St NE","Additonal_Address":null,"City":"Washington","State":"DC","Zip_Code":"20002","Zip4":"7230","County":"DIST OF COLUMBIA","Store_Type":"Supermarket","Latitude":38.901581,"Longitude":-76.978958,"Incentive_Program":null,"Grantee_Name":null,"ObjectId":110924},"geometry":{"type":"Point","coordinates":[-76.978958,38.901581]}},{"type":"Feature","properties":{"Record_ID":1505727,"Store_Name":"Tobacco & Convenience","Store_Street_Address":"1503 N Capitol St NE","Additonal_Address":"Apt A","City":"Washington","State":"DC","Zip_Code":"20002","Zip4":"3366","County":"DIST OF COLUMBIA","Store_Type":"Convenience Store","Latitude":38.909855,"Longitude":-77.008728,"Incentive_Program":null,"Grantee_Name":null,"ObjectId":111038},"geometry":{"type":"Point","coordinates":[-77.008728,38.909855]}},{"type":"Feature","properties":{"Record_ID":1521026,"Store_Name":"Penn Shop","Store_Street_Address":"2324B Pennsylvania Ave SE","Additonal_Address":null,"City":"Washington","State":"DC","Zip_Code":"20020","Zip4":"6706","County":"DIST OF COLUMBIA","Store_Type":"Convenience Store","Latitude":38.874176,"Longitude":-76.971764,"Incentive_Program":null,"Grantee_Name":null,"ObjectId":111510},"geometry":{"type":"Point","coordinates":[-76.971764,38.874176]}},{"type":"Feature","properties":{"Record_ID":1120930,"Store_Name":"Intoto Llc","Store_Street_Address":"6406 Georgia Ave NW","Additonal_Address":null,"City":"Washington","State":"DC","Zip_Code":"20012","Zip4":"2960","County":"DIST OF COLUMBIA","Store_Type":"Other","Latitude":38.967831,"Longitude":-77.027794,"Incentive_Program":null,"Grantee_Name":null,"ObjectId":112027},"geometry":{"type":"Point","coordinates":[-77.027794,38.967831]}},{"type":"Feature","properties":{"Record_ID":1121029,"Store_Name":"Yd Progress","Store_Street_Address":"5433 Georgia Ave NW","Additonal_Address":null,"City":"Washington","State":"DC","Zip_Code":"20011","Zip4":"3909","County":"DIST OF COLUMBIA","Store_Type":"Convenience Store","Latitude":38.955975,"Longitude":-77.027969,"Incentive_Program":null,"Grantee_Name":null,"ObjectId":112044},"geometry":{"type":"Point","coordinates":[-77.027969,38.955975]}},{"type":"Feature","properties":{"Record_ID":1090384,"Store_Name":"Giant 2381","Store_Street_Address":"300 H Street NE","Additonal_Address":null,"City":"Washington","State":"DC","Zip_Code":"20002","Zip4":"    ","County":"DIST OF COLUMBIA","Store_Type":"Super Store","Latitude":38.900269,"Longitude":-77.002022,"Incentive_Program":null,"Grantee_Name":null,"ObjectId":112522},"geometry":{"type":"Point","coordinates":[-77.002022,38.900269]}},{"type":"Feature","properties":{"Record_ID":1090769,"Store_Name":"Fort Carroll Market","Store_Street_Address":"3705 Martin Luther King Jr Ave SE","Additonal_Address":null,"City":"Washington","State":"DC","Zip_Code":"20032","Zip4":"1549","County":"DIST OF COLUMBIA","Store_Type":"Convenience Store","Latitude":38.837769,"Longitude":-77.006248,"Incentive_Program":null,"Grantee_Name":null,"ObjectId":112928},"geometry":{"type":"Point","coordinates":[-77.006248,38.837769]}},{"type":"Feature","properties":{"Record_ID":1123037,"Store_Name":"Walmart Supercenter 5968","Store_Street_Address":"5929 Georgia Ave NW","Additonal_Address":null,"City":"Washington","State":"DC","Zip_Code":"20011","Zip4":"5101","County":"DIST OF COLUMBIA","Store_Type":"Super Store","Latitude":38.962139,"Longitude":-77.027901,"Incentive_Program":null,"Grantee_Name":null,"ObjectId":113417},"geometry":{"type":"Point","coordinates":[-77.027901,38.962139]}},{"type":"Feature","properties":{"Record_ID":1075230,"Store_Name":"Family Dollar 5464","Store_Street_Address":"6217 Georgia Ave NW","Additonal_Address":null,"City":"Washington","State":"DC","Zip_Code":"20011","Zip4":"5111","County":"DIST OF COLUMBIA","Store_Type":"Convenience Store","Latitude":38.965157,"Longitude":-77.027611,"Incentive_Program":null,"Grantee_Name":null,"ObjectId":113454},"geometry":{"type":"Point","coordinates":[-77.027611,38.965157]}},{"type":"Feature","properties":{"Record_ID":1208681,"Store_Name":"Franklin Liquors & Market","Store_Street_Address":"2723 7th St NE","Additonal_Address":null,"City":"Washington","State":"DC","Zip_Code":"20017","Zip4":"1306","County":"DIST OF COLUMBIA","Store_Type":"Convenience Store","Latitude":38.925381,"Longitude":-76.996124,"Incentive_Program":null,"Grantee_Name":null,"ObjectId":114040},"geometry":{"type":"Point","coordinates":[-76.996124,38.925381]}},{"type":"Feature","properties":{"Record_ID":1092749,"Store_Name":"Walgreens 15360","Store_Street_Address":"801 7th St NW","Additonal_Address":null,"City":"Washington","State":"DC","Zip_Code":"20001","Zip4":"3717","County":"DIST OF COLUMBIA","Store_Type":"Pharmacy","Latitude":38.900009,"Longitude":-77.021873,"Incentive_Program":null,"Grantee_Name":null,"ObjectId":114320},"geometry":{"type":"Point","coordinates":[-77.021873,38.900009]}},{"type":"Feature","properties":{"Record_ID":1208989,"Store_Name":"FRESHFARM Dupont Circle Farmers Market","Store_Street_Address":"1500 20th St Nw","Additonal_Address":null,"City":"Washington","State":"DC","Zip_Code":"20036","Zip4":"1002","County":"DIST OF COLUMBIA","Store_Type":"Farmers and Markets","Latitude":38.909733,"Longitude":-77.044922,"Incentive_Program":null,"Grantee_Name":null,"ObjectId":114576},"geometry":{"type":"Point","coordinates":[-77.044922,38.909733]}},{"type":"Feature","properties":{"Record_ID":1209038,"Store_Name":"Grubb's Pharmacy Se Inc. 100","Store_Street_Address":"1800 Martin Luther King Jr Ave SE","Additonal_Address":null,"City":"Washington","State":"DC","Zip_Code":"20020","Zip4":"6900","County":"DIST OF COLUMBIA","Store_Type":"Other","Latitude":38.867577,"Longitude":-76.98806,"Incentive_Program":null,"Grantee_Name":"DC Central Kitchen Inc","ObjectId":114588},"geometry":{"type":"Point","coordinates":[-76.98806,38.867577]}},{"type":"Feature","properties":{"Record_ID":1214791,"Store_Name":"Walmart Supercenter 3035","Store_Street_Address":"310 Riggs Rd NE","Additonal_Address":null,"City":"Washington","State":"DC","Zip_Code":"20011","Zip4":"2534","County":"DIST OF COLUMBIA","Store_Type":"Super Store","Latitude":38.95752,"Longitude":-77.00209,"Incentive_Program":null,"Grantee_Name":null,"ObjectId":115221},"geometry":{"type":"Point","coordinates":[-77.00209,38.95752]}},{"type":"Feature","properties":{"Record_ID":1220915,"Store_Name":"Shaw Howard Deli Llc 1","Store_Street_Address":"1911 7th St NW","Additonal_Address":null,"City":"Washington","State":"DC","Zip_Code":"20001","Zip4":"3109","County":"DIST OF COLUMBIA","Store_Type":"Convenience Store","Latitude":38.915958,"Longitude":-77.021721,"Incentive_Program":null,"Grantee_Name":null,"ObjectId":116242},"geometry":{"type":"Point","coordinates":[-77.021721,38.915958]}},{"type":"Feature","properties":{"Record_ID":1221736,"Store_Name":"CVS 10685","Store_Street_Address":"655 K St NW","Additonal_Address":null,"City":"Washington","State":"DC","Zip_Code":"20001","Zip4":"2385","County":"DIST OF COLUMBIA","Store_Type":"Pharmacy","Latitude":38.90255,"Longitude":-77.020996,"Incentive_Program":null,"Grantee_Name":null,"ObjectId":116329},"geometry":{"type":"Point","coordinates":[-77.020996,38.90255]}},{"type":"Feature","properties":{"Record_ID":1219707,"Store_Name":"7 House II 1","Store_Street_Address":"4200 Nannie Helen Burroughs Ave Ne","Additonal_Address":null,"City":"Washington","State":"DC","Zip_Code":"20019","Zip4":"3639","County":"DIST OF COLUMBIA","Store_Type":"Convenience Store","Latitude":38.901749,"Longitude":-76.942116,"Incentive_Program":null,"Grantee_Name":null,"ObjectId":116424},"geometry":{"type":"Point","coordinates":[-76.942116,38.901749]}},{"type":"Feature","properties":{"Record_ID":1128341,"Store_Name":"Each Peach Market","Store_Street_Address":"3068 Mount Pleasant St NW","Additonal_Address":null,"City":"Washington","State":"DC","Zip_Code":"20009","Zip4":"4217","County":"DIST OF COLUMBIA","Store_Type":"Grocery Store","Latitude":38.928509,"Longitude":-77.037292,"Incentive_Program":null,"Grantee_Name":null,"ObjectId":117250},"geometry":{"type":"Point","coordinates":[-77.037292,38.928509]}},{"type":"Feature","properties":{"Record_ID":1129479,"Store_Name":"Uptown Mart LLC","Store_Street_Address":"2701 14th St. NW","Additonal_Address":null,"City":"Washington","State":"DC","Zip_Code":"20009","Zip4":"    ","County":"DIST OF COLUMBIA","Store_Type":"Convenience Store","Latitude":38.925083,"Longitude":-77.032204,"Incentive_Program":null,"Grantee_Name":null,"ObjectId":117720},"geometry":{"type":"Point","coordinates":[-77.032204,38.925083]}},{"type":"Feature","properties":{"Record_ID":1129601,"Store_Name":"Capitol LLC","Store_Street_Address":"2501 N Capitol St NE","Additonal_Address":null,"City":"Washington","State":"DC","Zip_Code":"20002","Zip4":"1014","County":"DIST OF COLUMBIA","Store_Type":"Grocery Store","Latitude":38.922531,"Longitude":-77.008736,"Incentive_Program":null,"Grantee_Name":"DC Central Kitchen Inc","ObjectId":117821},"geometry":{"type":"Point","coordinates":[-77.008736,38.922531]}},{"type":"Feature","properties":{"Record_ID":972414,"Store_Name":"Rodman's Discount Food & Drug","Store_Street_Address":"5100 Wisconsin Ave NW","Additonal_Address":null,"City":"Washington","State":"DC","Zip_Code":"20016","Zip4":"4119","County":"DIST OF COLUMBIA","Store_Type":"Grocery Store","Latitude":38.956375,"Longitude":-77.083862,"Incentive_Program":null,"Grantee_Name":null,"ObjectId":119615},"geometry":{"type":"Point","coordinates":[-77.083862,38.956375]}},{"type":"Feature","properties":{"Record_ID":1586090,"Store_Name":"Dreaming Out Loud's Kelly Miller Market","Store_Street_Address":"301 49th St NE","Additonal_Address":null,"City":"Washington","State":"DC","Zip_Code":"20019","Zip4":"4706","County":"DIST OF COLUMBIA","Store_Type":"Farmers and Markets","Latitude":38.893322,"Longitude":-76.932457,"Incentive_Program":null,"Grantee_Name":null,"ObjectId":120333},"geometry":{"type":"Point","coordinates":[-76.932457,38.893322]}},{"type":"Feature","properties":{"Record_ID":1225891,"Store_Name":"7/11 37102","Store_Street_Address":"3700 12th St NE","Additonal_Address":null,"City":"Washington","State":"DC","Zip_Code":"20017","Zip4":"2533","County":"DIST OF COLUMBIA","Store_Type":"Convenience Store","Latitude":38.934883,"Longitude":-76.991508,"Incentive_Program":null,"Grantee_Name":null,"ObjectId":120583},"geometry":{"type":"Point","coordinates":[-76.991508,38.934883]}},{"type":"Feature","properties":{"Record_ID":1523178,"Store_Name":"Aurora Market","Store_Street_Address":"500 Irving St NW","Additonal_Address":null,"City":"Washington","State":"DC","Zip_Code":"20010","Zip4":"2904","County":"DIST OF COLUMBIA","Store_Type":"Grocery Store","Latitude":38.929253,"Longitude":-77.019737,"Incentive_Program":null,"Grantee_Name":null,"ObjectId":120683},"geometry":{"type":"Point","coordinates":[-77.019737,38.929253]}},{"type":"Feature","properties":{"Record_ID":1195225,"Store_Name":"Walgreens 15953","Store_Street_Address":"1155 F St  NW","Additonal_Address":null,"City":"Washington","State":"DC","Zip_Code":"20004","Zip4":"    ","County":"DIST OF COLUMBIA","Store_Type":"Pharmacy","Latitude":38.897369,"Longitude":-77.027565,"Incentive_Program":null,"Grantee_Name":null,"ObjectId":120867},"geometry":{"type":"Point","coordinates":[-77.027565,38.897369]}},{"type":"Feature","properties":{"Record_ID":1195316,"Store_Name":"Casa Lebrato","Store_Street_Address":"1733 Columbia Rd Nw","Additonal_Address":null,"City":"Washington","State":"DC","Zip_Code":"20009","Zip4":"2803","County":"DIST OF COLUMBIA","Store_Type":"Convenience Store","Latitude":38.924446,"Longitude":-77.04007,"Incentive_Program":null,"Grantee_Name":null,"ObjectId":120922},"geometry":{"type":"Point","coordinates":[-77.04007,38.924446]}},{"type":"Feature","properties":{"Record_ID":1229291,"Store_Name":"Walgreens 16290","Store_Street_Address":"50 Massachusetts Ave","Additonal_Address":"Lower Level","City":"Washington","State":"DC","Zip_Code":"20002","Zip4":"    ","County":"DIST OF COLUMBIA","Store_Type":"Pharmacy","Latitude":38.896889,"Longitude":-77.006371,"Incentive_Program":null,"Grantee_Name":null,"ObjectId":121236},"geometry":{"type":"Point","coordinates":[-77.006371,38.896889]}},{"type":"Feature","properties":{"Record_ID":1276174,"Store_Name":"Whole Foods Market 10565","Store_Street_Address":"600 H St NE","Additonal_Address":null,"City":"Washington","State":"DC","Zip_Code":"20002","Zip4":"5144","County":"DIST OF COLUMBIA","Store_Type":"Super Store","Latitude":38.900238,"Longitude":-76.998306,"Incentive_Program":null,"Grantee_Name":null,"ObjectId":124216},"geometry":{"type":"Point","coordinates":[-76.998306,38.900238]}},{"type":"Feature","properties":{"Record_ID":1249938,"Store_Name":"Thomas And Sons Market","Store_Street_Address":"3425 Benning Rd NE","Additonal_Address":null,"City":"Washington","State":"DC","Zip_Code":"20019","Zip4":"1504","County":"DIST OF COLUMBIA","Store_Type":"Convenience Store","Latitude":38.896393,"Longitude":-76.95723,"Incentive_Program":null,"Grantee_Name":"DC Central Kitchen Inc","ObjectId":124370},"geometry":{"type":"Point","coordinates":[-76.95723,38.896393]}},{"type":"Feature","properties":{"Record_ID":1171420,"Store_Name":"Harris Teeter 383","Store_Street_Address":"401 M St SE","Additonal_Address":null,"City":"Washington","State":"DC","Zip_Code":"20003","Zip4":"3469","County":"DIST OF COLUMBIA","Store_Type":"Super Store","Latitude":38.876453,"Longitude":-77.000473,"Incentive_Program":null,"Grantee_Name":null,"ObjectId":125455},"geometry":{"type":"Point","coordinates":[-77.000473,38.876453]}},{"type":"Feature","properties":{"Record_ID":1181768,"Store_Name":"Ledroit Market","Store_Street_Address":"1901 4th St NW","Additonal_Address":null,"City":"Washington","State":"DC","Zip_Code":"20001","Zip4":"2305","County":"DIST OF COLUMBIA","Store_Type":"Convenience Store","Latitude":38.916061,"Longitude":-77.017227,"Incentive_Program":null,"Grantee_Name":null,"ObjectId":125760},"geometry":{"type":"Point","coordinates":[-77.017227,38.916061]}},{"type":"Feature","properties":{"Record_ID":978266,"Store_Name":"Harris Teeter 352","Store_Street_Address":"1201 1st St NE","Additonal_Address":null,"City":"Washington","State":"DC","Zip_Code":"20002","Zip4":"4274","County":"DIST OF COLUMBIA","Store_Type":"Super Store","Latitude":38.905636,"Longitude":-77.005798,"Incentive_Program":null,"Grantee_Name":null,"ObjectId":126973},"geometry":{"type":"Point","coordinates":[-77.005798,38.905636]}},{"type":"Feature","properties":{"Record_ID":1196308,"Store_Name":"Jm Enterprise Llc","Store_Street_Address":"1801 W Virginia Ave NE","Additonal_Address":"Apt A","City":"Washington","State":"DC","Zip_Code":"20002","Zip4":"1829","County":"DIST OF COLUMBIA","Store_Type":"Convenience Store","Latitude":38.910858,"Longitude":-76.985268,"Incentive_Program":null,"Grantee_Name":null,"ObjectId":127050},"geometry":{"type":"Point","coordinates":[-76.985268,38.910858]}},{"type":"Feature","properties":{"Record_ID":1313891,"Store_Name":"Georgia Mart & Wireless Llc 1","Store_Street_Address":"3547 Georgia Ave Nw","Additonal_Address":null,"City":"Washington","State":"DC","Zip_Code":"20010","Zip4":"1732","County":"DIST OF COLUMBIA","Store_Type":"Grocery Store","Latitude":38.934055,"Longitude":-77.023918,"Incentive_Program":null,"Grantee_Name":null,"ObjectId":127134},"geometry":{"type":"Point","coordinates":[-77.023918,38.934055]}},{"type":"Feature","properties":{"Record_ID":1314124,"Store_Name":"Ram Grocery","Store_Street_Address":"3509 Wheeler Rd Se","Additonal_Address":null,"City":"Washington","State":"DC","Zip_Code":"20032","Zip4":"4140","County":"DIST OF COLUMBIA","Store_Type":"Convenience Store","Latitude":38.839203,"Longitude":-76.993622,"Incentive_Program":null,"Grantee_Name":"DC Central Kitchen Inc","ObjectId":127192},"geometry":{"type":"Point","coordinates":[-76.993622,38.839203]}},{"type":"Feature","properties":{"Record_ID":1344905,"Store_Name":"CVS Pharmacy 10833","Store_Street_Address":"1101 New York Ave NW","Additonal_Address":null,"City":"Washington","State":"DC","Zip_Code":"20005","Zip4":"4213","County":"DIST OF COLUMBIA","Store_Type":"Pharmacy","Latitude":38.90168,"Longitude":-77.027542,"Incentive_Program":null,"Grantee_Name":null,"ObjectId":128028},"geometry":{"type":"Point","coordinates":[-77.027542,38.90168]}},{"type":"Feature","properties":{"Record_ID":1173773,"Store_Name":"Fort Drum Market","Store_Street_Address":"4686 Martin Luther King Jr Ave Sw","Additonal_Address":null,"City":"Washington","State":"DC","Zip_Code":"20032","Zip4":"1132","County":"DIST OF COLUMBIA","Store_Type":"Grocery Store","Latitude":38.82093,"Longitude":-77.010918,"Incentive_Program":null,"Grantee_Name":"DC Central Kitchen Inc","ObjectId":129350},"geometry":{"type":"Point","coordinates":[-77.010918,38.82093]}},{"type":"Feature","properties":{"Record_ID":1174341,"Store_Name":"Dollar Plus Grocery 1","Store_Street_Address":"1103 Mount Olivet Rd Ne","Additonal_Address":null,"City":"Washington","State":"DC","Zip_Code":"20002","Zip4":"2301","County":"DIST OF COLUMBIA","Store_Type":"Convenience Store","Latitude":38.910374,"Longitude":-76.98555,"Incentive_Program":null,"Grantee_Name":null,"ObjectId":129432},"geometry":{"type":"Point","coordinates":[-76.98555,38.910374]}},{"type":"Feature","properties":{"Record_ID":1176154,"Store_Name":"CVS 5674","Store_Street_Address":"3700 Newark St NW","Additonal_Address":null,"City":"Washington","State":"DC","Zip_Code":"20016","Zip4":"    ","County":"DIST OF COLUMBIA","Store_Type":"Pharmacy","Latitude":38.934605,"Longitude":-77.072586,"Incentive_Program":null,"Grantee_Name":null,"ObjectId":129899},"geometry":{"type":"Point","coordinates":[-77.072586,38.934605]}},{"type":"Feature","properties":{"Record_ID":1524641,"Store_Name":"Brightwood Supermarket","Store_Street_Address":"100 Kennedy St NW","Additonal_Address":null,"City":"Washington","State":"DC","Zip_Code":"20011","Zip4":"5213","County":"DIST OF COLUMBIA","Store_Type":"Convenience Store","Latitude":38.956402,"Longitude":-77.011848,"Incentive_Program":null,"Grantee_Name":null,"ObjectId":130117},"geometry":{"type":"Point","coordinates":[-77.011848,38.956402]}},{"type":"Feature","properties":{"Record_ID":1524403,"Store_Name":"7-Eleven 23723H","Store_Street_Address":"1700 17th St NW","Additonal_Address":null,"City":"Washington","State":"DC","Zip_Code":"20009","Zip4":"2453","County":"DIST OF COLUMBIA","Store_Type":"Convenience Store","Latitude":38.912853,"Longitude":-77.038826,"Incentive_Program":null,"Grantee_Name":null,"ObjectId":130417},"geometry":{"type":"Point","coordinates":[-77.038826,38.912853]}},{"type":"Feature","properties":{"Record_ID":1201355,"Store_Name":"Yes Organic Eastern Market 9","Store_Street_Address":"410 8th St SE","Additonal_Address":null,"City":"Washington","State":"DC","Zip_Code":"20003","Zip4":"    ","County":"DIST OF COLUMBIA","Store_Type":"Supermarket","Latitude":38.883549,"Longitude":-76.994942,"Incentive_Program":null,"Grantee_Name":null,"ObjectId":130989},"geometry":{"type":"Point","coordinates":[-76.994942,38.883549]}},{"type":"Feature","properties":{"Record_ID":1316957,"Store_Name":"Trader Joe's 621","Store_Street_Address":"350 Florida Ave NE","Additonal_Address":null,"City":"Washington","State":"DC","Zip_Code":"20002","Zip4":"3436","County":"DIST OF COLUMBIA","Store_Type":"Supermarket","Latitude":38.907501,"Longitude":-77.001251,"Incentive_Program":null,"Grantee_Name":null,"ObjectId":132461},"geometry":{"type":"Point","coordinates":[-77.001251,38.907501]}},{"type":"Feature","properties":{"Record_ID":1320444,"Store_Name":"Dollar1inc","Store_Street_Address":"3414 Georgia Ave NW","Additonal_Address":null,"City":"Washington","State":"DC","Zip_Code":"20010","Zip4":"2502","County":"DIST OF COLUMBIA","Store_Type":"Convenience Store","Latitude":38.932453,"Longitude":-77.024063,"Incentive_Program":null,"Grantee_Name":null,"ObjectId":132489},"geometry":{"type":"Point","coordinates":[-77.024063,38.932453]}},{"type":"Feature","properties":{"Record_ID":1181661,"Store_Name":"STREETS MARKET","Store_Street_Address":"2400 14th St Nw","Additonal_Address":null,"City":"Washington","State":"DC","Zip_Code":"20009","Zip4":"4502","County":"DIST OF COLUMBIA","Store_Type":"Supermarket","Latitude":38.921066,"Longitude":-77.031906,"Incentive_Program":null,"Grantee_Name":null,"ObjectId":133235},"geometry":{"type":"Point","coordinates":[-77.031906,38.921066]}},{"type":"Feature","properties":{"Record_ID":1584637,"Store_Name":"7-eleven 36711c","Store_Street_Address":"5501 South Dakota Ave NE","Additonal_Address":null,"City":"Washington","State":"DC","Zip_Code":"20011","Zip4":"2627","County":"DIST OF COLUMBIA","Store_Type":"Convenience Store","Latitude":38.956028,"Longitude":-77.000587,"Incentive_Program":null,"Grantee_Name":null,"ObjectId":133577},"geometry":{"type":"Point","coordinates":[-77.000587,38.956028]}},{"type":"Feature","properties":{"Record_ID":1346546,"Store_Name":"7 Days Market","Store_Street_Address":"2310 Rhode Island Ave NE","Additonal_Address":null,"City":"Washington","State":"DC","Zip_Code":"20018","Zip4":"2829","County":"DIST OF COLUMBIA","Store_Type":"Convenience Store","Latitude":38.93084,"Longitude":-76.973114,"Incentive_Program":null,"Grantee_Name":null,"ObjectId":133968},"geometry":{"type":"Point","coordinates":[-76.973114,38.93084]}},{"type":"Feature","properties":{"Record_ID":1284101,"Store_Name":"7-Eleven 38027H","Store_Street_Address":"3433 Connecticut Ave NW","Additonal_Address":null,"City":"Washington","State":"DC","Zip_Code":"20008","Zip4":"1304","County":"DIST OF COLUMBIA","Store_Type":"Convenience Store","Latitude":38.93486,"Longitude":-77.057861,"Incentive_Program":null,"Grantee_Name":null,"ObjectId":134316},"geometry":{"type":"Point","coordinates":[-77.057861,38.93486]}},{"type":"Feature","properties":{"Record_ID":1579374,"Store_Name":"7-Eleven Store YES","Store_Street_Address":"25 Peabody St NW","Additonal_Address":null,"City":"Washington","State":"DC","Zip_Code":"20011","Zip4":"2211","County":"DIST OF COLUMBIA","Store_Type":"Convenience Store","Latitude":38.962994,"Longitude":-77.010696,"Incentive_Program":null,"Grantee_Name":null,"ObjectId":134480},"geometry":{"type":"Point","coordinates":[-77.010696,38.962994]}},{"type":"Feature","properties":{"Record_ID":1284601,"Store_Name":"Four Corners Market","Store_Street_Address":"440 Kennedy St NW","Additonal_Address":null,"City":"Washington","State":"DC","Zip_Code":"20011","Zip4":"6506","County":"DIST OF COLUMBIA","Store_Type":"Convenience Store","Latitude":38.956421,"Longitude":-77.019424,"Incentive_Program":null,"Grantee_Name":null,"ObjectId":134589},"geometry":{"type":"Point","coordinates":[-77.019424,38.956421]}},{"type":"Feature","properties":{"Record_ID":1207003,"Store_Name":"Eve Llc","Store_Street_Address":"4418 Georgia Ave Nw","Additonal_Address":null,"City":"Washington","State":"DC","Zip_Code":"20011","Zip4":"7124","County":"DIST OF COLUMBIA","Store_Type":"Grocery Store","Latitude":38.944813,"Longitude":-77.026299,"Incentive_Program":null,"Grantee_Name":null,"ObjectId":135258},"geometry":{"type":"Point","coordinates":[-77.026299,38.944813]}},{"type":"Feature","properties":{"Record_ID":1207420,"Store_Name":"New Dodge Market","Store_Street_Address":"3620 14th St NW","Additonal_Address":null,"City":"Washington","State":"DC","Zip_Code":"20010","Zip4":"1319","County":"DIST OF COLUMBIA","Store_Type":"Convenience Store","Latitude":38.937016,"Longitude":-77.033028,"Incentive_Program":null,"Grantee_Name":null,"ObjectId":135348},"geometry":{"type":"Point","coordinates":[-77.033028,38.937016]}},{"type":"Feature","properties":{"Record_ID":1321193,"Store_Name":"Flavor Us Market","Store_Street_Address":"1731 7th St NW","Additonal_Address":null,"City":"Washington","State":"DC","Zip_Code":"20001","Zip4":"3142","County":"DIST OF COLUMBIA","Store_Type":"Convenience Store","Latitude":38.913769,"Longitude":-77.021652,"Incentive_Program":null,"Grantee_Name":null,"ObjectId":136011},"geometry":{"type":"Point","coordinates":[-77.021652,38.913769]}},{"type":"Feature","properties":{"Record_ID":1322260,"Store_Name":"Udc Van Ness Farmers Market","Store_Street_Address":"4340 Connecticut Ave NW","Additonal_Address":null,"City":"Washington","State":"DC","Zip_Code":"20008","Zip4":"2315","County":"DIST OF COLUMBIA","Store_Type":"Farmers and Markets","Latitude":38.946232,"Longitude":-77.065201,"Incentive_Program":null,"Grantee_Name":null,"ObjectId":136365},"geometry":{"type":"Point","coordinates":[-77.065201,38.946232]}},{"type":"Feature","properties":{"Record_ID":1183731,"Store_Name":"CVS 10287","Store_Street_Address":"645 H St NE","Additonal_Address":null,"City":"Washington","State":"DC","Zip_Code":"20002","Zip4":"4369","County":"DIST OF COLUMBIA","Store_Type":"Pharmacy","Latitude":38.900173,"Longitude":-76.996513,"Incentive_Program":null,"Grantee_Name":null,"ObjectId":137521},"geometry":{"type":"Point","coordinates":[-76.996513,38.900173]}},{"type":"Feature","properties":{"Record_ID":1347558,"Store_Name":"STREETS MARKET","Store_Street_Address":"51 M St NE","Additonal_Address":null,"City":"Washington","State":"DC","Zip_Code":"20002","Zip4":"3297","County":"DIST OF COLUMBIA","Store_Type":"Supermarket","Latitude":38.90546,"Longitude":-77.007271,"Incentive_Program":null,"Grantee_Name":null,"ObjectId":137820},"geometry":{"type":"Point","coordinates":[-77.007271,38.90546]}},{"type":"Feature","properties":{"Record_ID":860833,"Store_Name":"Bloomingdale Farmers Market","Store_Street_Address":"100 R ST NW","Additonal_Address":null,"City":"Washington","State":"DC","Zip_Code":"20002","Zip4":"2120","County":"DIST OF COLUMBIA","Store_Type":"Farmers and Markets","Latitude":38.912663,"Longitude":-77.006477,"Incentive_Program":null,"Grantee_Name":null,"ObjectId":141083},"geometry":{"type":"Point","coordinates":[-77.006477,38.912663]}},{"type":"Feature","properties":{"Record_ID":1368257,"Store_Name":"Wawa 6004","Store_Street_Address":"4530 40th St NW","Additonal_Address":"Unit A","City":"Washington","State":"DC","Zip_Code":"20016","Zip4":"1811","County":"DIST OF COLUMBIA","Store_Type":"Convenience Store","Latitude":38.9491,"Longitude":-77.079216,"Incentive_Program":null,"Grantee_Name":null,"ObjectId":141301},"geometry":{"type":"Point","coordinates":[-77.079216,38.9491]}},{"type":"Feature","properties":{"Record_ID":782035,"Store_Name":"Mount Pleasant Farmers Market","Store_Street_Address":"3210 Mount Pleasant St NW","Additonal_Address":null,"City":"Washington","State":"DC","Zip_Code":"20010","Zip4":"2103","County":"DIST OF COLUMBIA","Store_Type":"Farmers and Markets","Latitude":38.931358,"Longitude":-77.038422,"Incentive_Program":null,"Grantee_Name":null,"ObjectId":141787},"geometry":{"type":"Point","coordinates":[-77.038422,38.931358]}},{"type":"Feature","properties":{"Record_ID":1326176,"Store_Name":"Kaladi Llc","Store_Street_Address":"1500 Independence Ave SE","Additonal_Address":null,"City":"Washington","State":"DC","Zip_Code":"20003","Zip4":"1547","County":"DIST OF COLUMBIA","Store_Type":"Convenience Store","Latitude":38.887787,"Longitude":-76.983376,"Incentive_Program":null,"Grantee_Name":null,"ObjectId":141991},"geometry":{"type":"Point","coordinates":[-76.983376,38.887787]}},{"type":"Feature","properties":{"Record_ID":1300189,"Store_Name":"CVS Pharmacy CVS10415","Store_Street_Address":"800 Maine Ave SW","Additonal_Address":null,"City":"Washington","State":"DC","Zip_Code":"20024","Zip4":"2494","County":"DIST OF COLUMBIA","Store_Type":"Pharmacy","Latitude":38.878983,"Longitude":-77.023323,"Incentive_Program":null,"Grantee_Name":null,"ObjectId":142281},"geometry":{"type":"Point","coordinates":[-77.023323,38.878983]}},{"type":"Feature","properties":{"Record_ID":1302122,"Store_Name":"Columbia Heights Service","Store_Street_Address":"3540 14th St NW","Additonal_Address":null,"City":"Washington","State":"DC","Zip_Code":"20010","Zip4":"1363","County":"DIST OF COLUMBIA","Store_Type":"Convenience Store","Latitude":38.935368,"Longitude":-77.032738,"Incentive_Program":null,"Grantee_Name":null,"ObjectId":142309},"geometry":{"type":"Point","coordinates":[-77.032738,38.935368]}},{"type":"Feature","properties":{"Record_ID":1578117,"Store_Name":"7 River Mart","Store_Street_Address":"250 11th St NE","Additonal_Address":null,"City":"Washington","State":"DC","Zip_Code":"20002","Zip4":"6218","County":"DIST OF COLUMBIA","Store_Type":"Convenience Store","Latitude":38.893452,"Longitude":-76.991798,"Incentive_Program":null,"Grantee_Name":null,"ObjectId":142704},"geometry":{"type":"Point","coordinates":[-76.991798,38.893452]}},{"type":"Feature","properties":{"Record_ID":1326674,"Store_Name":"Ramdass Pharmaceuticals Inc.","Store_Street_Address":"475 Ingraham St NE","Additonal_Address":null,"City":"Washington","State":"DC","Zip_Code":"20011","Zip4":"2602","County":"DIST OF COLUMBIA","Store_Type":"Convenience Store","Latitude":38.953655,"Longitude":-76.999168,"Incentive_Program":null,"Grantee_Name":null,"ObjectId":142781},"geometry":{"type":"Point","coordinates":[-76.999168,38.953655]}},{"type":"Feature","properties":{"Record_ID":1370069,"Store_Name":"Trader Joe's 620","Store_Street_Address":"2101 Wisconsin Ave NW","Additonal_Address":"Ste A","City":"Washington","State":"DC","Zip_Code":"20007","Zip4":"    ","County":"DIST OF COLUMBIA","Store_Type":"Supermarket","Latitude":38.917313,"Longitude":-77.068687,"Incentive_Program":null,"Grantee_Name":null,"ObjectId":143070},"geometry":{"type":"Point","coordinates":[-77.068687,38.917313]}},{"type":"Feature","properties":{"Record_ID":1311983,"Store_Name":"Menkem Llc","Store_Street_Address":"4202 Benning Rd NE","Additonal_Address":null,"City":"Washington","State":"DC","Zip_Code":"20019","Zip4":"4540","County":"DIST OF COLUMBIA","Store_Type":"Convenience Store","Latitude":38.893124,"Longitude":-76.942314,"Incentive_Program":null,"Grantee_Name":null,"ObjectId":145381},"geometry":{"type":"Point","coordinates":[-76.942314,38.893124]}},{"type":"Feature","properties":{"Record_ID":1302774,"Store_Name":"Market Poultry 8","Store_Street_Address":"225 7th St SE","Additonal_Address":"Ste 14","City":"Washington","State":"DC","Zip_Code":"20003","Zip4":"4323","County":"DIST OF COLUMBIA","Store_Type":"Specialty Store","Latitude":38.886421,"Longitude":-76.996468,"Incentive_Program":null,"Grantee_Name":null,"ObjectId":145557},"geometry":{"type":"Point","coordinates":[-76.996468,38.886421]}},{"type":"Feature","properties":{"Record_ID":1328034,"Store_Name":"Z Mart Grocery Dollar Plus Store","Store_Street_Address":"4522 Benning Rd SE","Additonal_Address":null,"City":"Washington","State":"DC","Zip_Code":"20019","Zip4":"5149","County":"DIST OF COLUMBIA","Store_Type":"Grocery Store","Latitude":38.889107,"Longitude":-76.936661,"Incentive_Program":null,"Grantee_Name":null,"ObjectId":145777},"geometry":{"type":"Point","coordinates":[-76.936661,38.889107]}},{"type":"Feature","properties":{"Record_ID":1328042,"Store_Name":"Rayan Inc 1","Store_Street_Address":"3459 14th St NW","Additonal_Address":null,"City":"Washington","State":"DC","Zip_Code":"20010","Zip4":"3404","County":"DIST OF COLUMBIA","Store_Type":"Convenience Store","Latitude":38.933731,"Longitude":-77.032425,"Incentive_Program":null,"Grantee_Name":null,"ObjectId":145780},"geometry":{"type":"Point","coordinates":[-77.032425,38.933731]}},{"type":"Feature","properties":{"Record_ID":1397283,"Store_Name":"FRESHFARM Uptown Farmers Market","Store_Street_Address":"5500 Colorado Ave NW","Additonal_Address":null,"City":"Washington","State":"DC","Zip_Code":"20011","Zip4":"7802","County":"DIST OF COLUMBIA","Store_Type":"Farmers and Markets","Latitude":38.956673,"Longitude":-77.033188,"Incentive_Program":null,"Grantee_Name":null,"ObjectId":146331},"geometry":{"type":"Point","coordinates":[-77.033188,38.956673]}},{"type":"Feature","properties":{"Record_ID":1397287,"Store_Name":"FRESHFARM Monroe Farmers Market","Store_Street_Address":"716 Monroe St NE","Additonal_Address":null,"City":"Washington","State":"DC","Zip_Code":"20017","Zip4":"1700","County":"DIST OF COLUMBIA","Store_Type":"Farmers and Markets","Latitude":38.932838,"Longitude":-76.99501,"Incentive_Program":null,"Grantee_Name":null,"ObjectId":146343},"geometry":{"type":"Point","coordinates":[-76.99501,38.932838]}},{"type":"Feature","properties":{"Record_ID":1397922,"Store_Name":"7-Eleven Store 38711H","Store_Street_Address":"504 K St NW","Additonal_Address":null,"City":"Washington","State":"DC","Zip_Code":"20001","Zip4":"2533","County":"DIST OF COLUMBIA","Store_Type":"Convenience Store","Latitude":38.902283,"Longitude":-77.019302,"Incentive_Program":null,"Grantee_Name":null,"ObjectId":146382},"geometry":{"type":"Point","coordinates":[-77.019302,38.902283]}},{"type":"Feature","properties":{"Record_ID":1397291,"Store_Name":"FRESHFARM Minnesota Ave Farm Stand","Store_Street_Address":"3924 Minnesota Ave NE","Additonal_Address":null,"City":"Washington","State":"DC","Zip_Code":"20019","Zip4":"2661","County":"DIST OF COLUMBIA","Store_Type":"Farmers and Markets","Latitude":38.893932,"Longitude":-76.951309,"Incentive_Program":null,"Grantee_Name":null,"ObjectId":146606},"geometry":{"type":"Point","coordinates":[-76.951309,38.893932]}},{"type":"Feature","properties":{"Record_ID":1397294,"Store_Name":"FRESHFARM Cesar Chavez Farm Stand","Store_Street_Address":"700 Parkside Pl NE","Additonal_Address":null,"City":"Washington","State":"DC","Zip_Code":"20019","Zip4":"1879","County":"DIST OF COLUMBIA","Store_Type":"Farmers and Markets","Latitude":38.900475,"Longitude":-76.949409,"Incentive_Program":null,"Grantee_Name":null,"ObjectId":146612},"geometry":{"type":"Point","coordinates":[-76.949409,38.900475]}},{"type":"Feature","properties":{"Record_ID":1397297,"Store_Name":"FRESHFARM Kenilworth Rec Center Farm Stand","Store_Street_Address":"4321 Ord St NE","Additonal_Address":null,"City":"Washington","State":"DC","Zip_Code":"20019","Zip4":"1959","County":"DIST OF COLUMBIA","Store_Type":"Farmers and Markets","Latitude":38.90834,"Longitude":-76.940956,"Incentive_Program":null,"Grantee_Name":null,"ObjectId":146614},"geometry":{"type":"Point","coordinates":[-76.940956,38.90834]}},{"type":"Feature","properties":{"Record_ID":1397476,"Store_Name":"FRESHFARM Columbia Heights Farm Share","Store_Street_Address":"3225 14th St Nw","Additonal_Address":null,"City":"Washington","State":"DC","Zip_Code":"20010","Zip4":"2309","County":"DIST OF COLUMBIA","Store_Type":"Farmers and Markets","Latitude":38.930023,"Longitude":-77.032181,"Incentive_Program":null,"Grantee_Name":null,"ObjectId":146713},"geometry":{"type":"Point","coordinates":[-77.032181,38.930023]}},{"type":"Feature","properties":{"Record_ID":1582381,"Store_Name":"Educare Parkside Market","Store_Street_Address":"640 Anacostia Ave NE","Additonal_Address":null,"City":"Washington","State":"DC","Zip_Code":"20019","Zip4":"1509","County":"DIST OF COLUMBIA","Store_Type":"Farmers and Markets","Latitude":38.900581,"Longitude":-76.95298,"Incentive_Program":null,"Grantee_Name":null,"ObjectId":147265},"geometry":{"type":"Point","coordinates":[-76.95298,38.900581]}},{"type":"Feature","properties":{"Record_ID":1323339,"Store_Name":"Ken Mart","Store_Street_Address":"1507 Kenilworth Ave Ne","Additonal_Address":null,"City":"Washington","State":"DC","Zip_Code":"20019","Zip4":"2006","County":"DIST OF COLUMBIA","Store_Type":"Convenience Store","Latitude":38.90979,"Longitude":-76.935783,"Incentive_Program":null,"Grantee_Name":"DC Central Kitchen Inc","ObjectId":147735},"geometry":{"type":"Point","coordinates":[-76.935783,38.90979]}},{"type":"Feature","properties":{"Record_ID":1398383,"Store_Name":"House Of Ruth Family Share","Store_Street_Address":"2011 Savannah St SE","Additonal_Address":null,"City":"Washington","State":"DC","Zip_Code":"20020","Zip4":"7574","County":"DIST OF COLUMBIA","Store_Type":"Farmers and Markets","Latitude":38.846546,"Longitude":-76.974762,"Incentive_Program":null,"Grantee_Name":null,"ObjectId":147837},"geometry":{"type":"Point","coordinates":[-76.974762,38.846546]}},{"type":"Feature","properties":{"Record_ID":1329249,"Store_Name":"STREETS MARKET","Store_Street_Address":"3427 Connecticut Ave NW","Additonal_Address":null,"City":"Washington","State":"DC","Zip_Code":"20008","Zip4":"1314","County":"DIST OF COLUMBIA","Store_Type":"Supermarket","Latitude":38.935242,"Longitude":-77.057884,"Incentive_Program":null,"Grantee_Name":null,"ObjectId":147887},"geometry":{"type":"Point","coordinates":[-77.057884,38.935242]}},{"type":"Feature","properties":{"Record_ID":1306555,"Store_Name":"Wawa 6001","Store_Street_Address":"1111 19th St NW","Additonal_Address":null,"City":"Washington","State":"DC","Zip_Code":"20036","Zip4":"3603","County":"DIST OF COLUMBIA","Store_Type":"Convenience Store","Latitude":38.904408,"Longitude":-77.043427,"Incentive_Program":null,"Grantee_Name":null,"ObjectId":149330},"geometry":{"type":"Point","coordinates":[-77.043427,38.904408]}},{"type":"Feature","properties":{"Record_ID":1105510,"Store_Name":"Quick Trip 24 Llc 1","Store_Street_Address":"1356 Brentwood Rd NE","Additonal_Address":null,"City":"Washington","State":"DC","Zip_Code":"20018","Zip4":"3704","County":"DIST OF COLUMBIA","Store_Type":"Convenience Store","Latitude":38.925064,"Longitude":-76.986046,"Incentive_Program":null,"Grantee_Name":null,"ObjectId":149636},"geometry":{"type":"Point","coordinates":[-76.986046,38.925064]}},{"type":"Feature","properties":{"Record_ID":1398932,"Store_Name":"Stanton Supermarket","Store_Street_Address":"1453 Howard Rd SE","Additonal_Address":null,"City":"Washington","State":"DC","Zip_Code":"20020","Zip4":"4452","County":"DIST OF COLUMBIA","Store_Type":"Grocery Store","Latitude":38.858257,"Longitude":-76.98735,"Incentive_Program":null,"Grantee_Name":"DC Central Kitchen Inc","ObjectId":150620},"geometry":{"type":"Point","coordinates":[-76.98735,38.858257]}},{"type":"Feature","properties":{"Record_ID":1255926,"Store_Name":"7-Eleven 27905L","Store_Street_Address":"2850 Bladensburg Rd NE","Additonal_Address":null,"City":"Washington","State":"DC","Zip_Code":"20018","Zip4":"4101","County":"DIST OF COLUMBIA","Store_Type":"Convenience Store","Latitude":38.927181,"Longitude":-76.963409,"Incentive_Program":null,"Grantee_Name":null,"ObjectId":150748},"geometry":{"type":"Point","coordinates":[-76.963409,38.927181]}},{"type":"Feature","properties":{"Record_ID":1402488,"Store_Name":"Tobacco Light Convenience Store","Store_Street_Address":"1517 Good Hope Rd SE","Additonal_Address":null,"City":"Washington","State":"DC","Zip_Code":"20020","Zip4":"5634","County":"DIST OF COLUMBIA","Store_Type":"Convenience Store","Latitude":38.86615,"Longitude":-76.982704,"Incentive_Program":null,"Grantee_Name":null,"ObjectId":151388},"geometry":{"type":"Point","coordinates":[-76.982704,38.86615]}},{"type":"Feature","properties":{"Record_ID":1399423,"Store_Name":"STREETS MARKET ","Store_Street_Address":"1864 Columbia Rd NW","Additonal_Address":null,"City":"Washington","State":"DC","Zip_Code":"20009","Zip4":"2002","County":"DIST OF COLUMBIA","Store_Type":"Supermarket","Latitude":38.920753,"Longitude":-77.043541,"Incentive_Program":null,"Grantee_Name":null,"ObjectId":151459},"geometry":{"type":"Point","coordinates":[-77.043541,38.920753]}},{"type":"Feature","properties":{"Record_ID":1352083,"Store_Name":"7-eleven 35500b","Store_Street_Address":"900 Bladensburg Rd NE","Additonal_Address":null,"City":"Washington","State":"DC","Zip_Code":"20002","Zip4":"3930","County":"DIST OF COLUMBIA","Store_Type":"Convenience Store","Latitude":38.902069,"Longitude":-76.98243,"Incentive_Program":null,"Grantee_Name":null,"ObjectId":152310},"geometry":{"type":"Point","coordinates":[-76.98243,38.902069]}},{"type":"Feature","properties":{"Record_ID":1311131,"Store_Name":"Moos Llc","Store_Street_Address":"5010 Benning Rd SE","Additonal_Address":null,"City":"Washington","State":"DC","Zip_Code":"20019","Zip4":"5838","County":"DIST OF COLUMBIA","Store_Type":"Convenience Store","Latitude":38.878139,"Longitude":-76.931358,"Incentive_Program":null,"Grantee_Name":null,"ObjectId":153600},"geometry":{"type":"Point","coordinates":[-76.931358,38.878139]}},{"type":"Feature","properties":{"Record_ID":1259075,"Store_Name":"7-eleven 37300a","Store_Street_Address":"3218 Pennsylvania Ave SE","Additonal_Address":null,"City":"Washington","State":"DC","Zip_Code":"20020","Zip4":"3712","County":"DIST OF COLUMBIA","Store_Type":"Convenience Store","Latitude":38.869011,"Longitude":-76.959587,"Incentive_Program":null,"Grantee_Name":null,"ObjectId":154634},"geometry":{"type":"Point","coordinates":[-76.959587,38.869011]}},{"type":"Feature","properties":{"Record_ID":1260873,"Store_Name":"Surprise Market 1","Store_Street_Address":"2233 Minnesota Ave Se","Additonal_Address":null,"City":"Washington","State":"DC","Zip_Code":"20020","Zip4":"5323","County":"DIST OF COLUMBIA","Store_Type":"Grocery Store","Latitude":38.871632,"Longitude":-76.974319,"Incentive_Program":null,"Grantee_Name":"DC Central Kitchen Inc","ObjectId":156136},"geometry":{"type":"Point","coordinates":[-76.974319,38.871632]}},{"type":"Feature","properties":{"Record_ID":1570562,"Store_Name":"A To Z Grocery Store ","Store_Street_Address":"3225 Pennsylvania Ave SE","Additonal_Address":null,"City":"Washington","State":"DC","Zip_Code":"20020","Zip4":"3760","County":"DIST OF COLUMBIA","Store_Type":"Convenience Store","Latitude":38.868546,"Longitude":-76.959633,"Incentive_Program":null,"Grantee_Name":null,"ObjectId":156777},"geometry":{"type":"Point","coordinates":[-76.959633,38.868546]}},{"type":"Feature","properties":{"Record_ID":1386317,"Store_Name":"7-Eleven Store 35291K","Store_Street_Address":"2501 Benning Rd NE","Additonal_Address":null,"City":"Washington","State":"DC","Zip_Code":"20002","Zip4":"4805","County":"DIST OF COLUMBIA","Store_Type":"Convenience Store","Latitude":38.897667,"Longitude":-76.970909,"Incentive_Program":null,"Grantee_Name":null,"ObjectId":156942},"geometry":{"type":"Point","coordinates":[-76.970909,38.897667]}},{"type":"Feature","properties":{"Record_ID":1266775,"Store_Name":"Ivy City Smokehouse","Store_Street_Address":"1356 Okie St Ne","Additonal_Address":null,"City":"Washington","State":"DC","Zip_Code":"20002","Zip4":"1732","County":"DIST OF COLUMBIA","Store_Type":"Specialty Store","Latitude":38.914467,"Longitude":-76.985489,"Incentive_Program":null,"Grantee_Name":null,"ObjectId":157727},"geometry":{"type":"Point","coordinates":[-76.985489,38.914467]}},{"type":"Feature","properties":{"Record_ID":1264633,"Store_Name":"Mas Inc","Store_Street_Address":"3710 Minnesota Ave NE","Additonal_Address":null,"City":"Washington","State":"DC","Zip_Code":"20019","Zip4":"2667","County":"DIST OF COLUMBIA","Store_Type":"Convenience Store","Latitude":38.890808,"Longitude":-76.952377,"Incentive_Program":null,"Grantee_Name":null,"ObjectId":157773},"geometry":{"type":"Point","coordinates":[-76.952377,38.890808]}},{"type":"Feature","properties":{"Record_ID":1427822,"Store_Name":"Neighborhood Market n/a","Store_Street_Address":"1611 Rhode Island Ave NE","Additonal_Address":null,"City":"Washington","State":"DC","Zip_Code":"20018","Zip4":"1841","County":"DIST OF COLUMBIA","Store_Type":"Convenience Store","Latitude":38.926231,"Longitude":-76.98127,"Incentive_Program":null,"Grantee_Name":null,"ObjectId":158442},"geometry":{"type":"Point","coordinates":[-76.98127,38.926231]}},{"type":"Feature","properties":{"Record_ID":1365457,"Store_Name":"Southern Express Liquors","Store_Street_Address":"4416 Southern Ave SE","Additonal_Address":null,"City":"Washington","State":"DC","Zip_Code":"20019","Zip4":"5627","County":"DIST OF COLUMBIA","Store_Type":"Convenience Store","Latitude":38.873322,"Longitude":-76.934807,"Incentive_Program":null,"Grantee_Name":null,"ObjectId":159666},"geometry":{"type":"Point","coordinates":[-76.934807,38.873322]}},{"type":"Feature","properties":{"Record_ID":1388223,"Store_Name":"STREETS MARKET 22nd St","Store_Street_Address":"1255 22nd St Nw","Additonal_Address":null,"City":"Washington","State":"DC","Zip_Code":"20037","Zip4":"    ","County":"DIST OF COLUMBIA","Store_Type":"Supermarket","Latitude":38.906693,"Longitude":-77.048363,"Incentive_Program":null,"Grantee_Name":null,"ObjectId":160394},"geometry":{"type":"Point","coordinates":[-77.048363,38.906693]}},{"type":"Feature","properties":{"Record_ID":1268151,"Store_Name":"Sewa International Inc","Store_Street_Address":"5774 2nd St Ne","Additonal_Address":null,"City":"Washington","State":"DC","Zip_Code":"20011","Zip4":"2524","County":"DIST OF COLUMBIA","Store_Type":"Grocery Store","Latitude":38.960121,"Longitude":-77.004616,"Incentive_Program":null,"Grantee_Name":null,"ObjectId":160502},"geometry":{"type":"Point","coordinates":[-77.004616,38.960121]}},{"type":"Feature","properties":{"Record_ID":1390108,"Store_Name":"7-Eleven Store 36438J","Store_Street_Address":"1233 Brentwood Rd NE","Additonal_Address":null,"City":"Washington","State":"DC","Zip_Code":"20018","Zip4":"1019","County":"DIST OF COLUMBIA","Store_Type":"Convenience Store","Latitude":38.920509,"Longitude":-76.989212,"Incentive_Program":null,"Grantee_Name":null,"ObjectId":161267},"geometry":{"type":"Point","coordinates":[-76.989212,38.920509]}},{"type":"Feature","properties":{"Record_ID":1390508,"Store_Name":"FRESHFARM Columbia Heights Farmers Market n/a","Store_Street_Address":"1375 Kenyon St NW","Additonal_Address":null,"City":"Washington","State":"DC","Zip_Code":"20010","Zip4":"2398","County":"DIST OF COLUMBIA","Store_Type":"Farmers and Markets","Latitude":38.929859,"Longitude":-77.031853,"Incentive_Program":null,"Grantee_Name":null,"ObjectId":161327},"geometry":{"type":"Point","coordinates":[-77.031853,38.929859]}},{"type":"Feature","properties":{"Record_ID":1462242,"Store_Name":"Fairland Market #2","Store_Street_Address":"7717 Georgia Ave NW","Additonal_Address":null,"City":"Washington","State":"DC","Zip_Code":"20012","Zip4":"1611","County":"DIST OF COLUMBIA","Store_Type":"Grocery Store","Latitude":38.983421,"Longitude":-77.026062,"Incentive_Program":null,"Grantee_Name":null,"ObjectId":161426},"geometry":{"type":"Point","coordinates":[-77.026062,38.983421]}},{"type":"Feature","properties":{"Record_ID":1330483,"Store_Name":"Suburban Market","Store_Street_Address":"4600 Sheriff Road NE","Additonal_Address":null,"City":"Washington","State":"DC","Zip_Code":"20019","Zip4":"    ","County":"DIST OF COLUMBIA","Store_Type":"Convenience Store","Latitude":38.902985,"Longitude":-76.936485,"Incentive_Program":null,"Grantee_Name":null,"ObjectId":161429},"geometry":{"type":"Point","coordinates":[-76.936485,38.902985]}},{"type":"Feature","properties":{"Record_ID":1612279,"Store_Name":"Delicias Market","Store_Street_Address":"3702 14th St NW","Additonal_Address":null,"City":"Washington","State":"DC","Zip_Code":"20010","Zip4":"1321","County":"DIST OF COLUMBIA","Store_Type":"Convenience Store","Latitude":38.937378,"Longitude":-77.033043,"Incentive_Program":null,"Grantee_Name":null,"ObjectId":161469},"geometry":{"type":"Point","coordinates":[-77.033043,38.937378]}},{"type":"Feature","properties":{"Record_ID":1390190,"Store_Name":"Five Star Trading Llc Dba Brightwood Mart","Store_Street_Address":"4034 Georgia Ave NW","Additonal_Address":null,"City":"Washington","State":"DC","Zip_Code":"20011","Zip4":"5857","County":"DIST OF COLUMBIA","Store_Type":"Convenience Store","Latitude":38.940559,"Longitude":-77.025452,"Incentive_Program":null,"Grantee_Name":null,"ObjectId":161534},"geometry":{"type":"Point","coordinates":[-77.025452,38.940559]}},{"type":"Feature","properties":{"Record_ID":1381646,"Store_Name":"Target Store T3320","Store_Street_Address":"1515 New York Ave NE","Additonal_Address":null,"City":"Washington","State":"DC","Zip_Code":"20002","Zip4":"1744","County":"DIST OF COLUMBIA","Store_Type":"Super Store","Latitude":38.91608,"Longitude":-76.98214,"Incentive_Program":null,"Grantee_Name":null,"ObjectId":163236},"geometry":{"type":"Point","coordinates":[-76.98214,38.91608]}},{"type":"Feature","properties":{"Record_ID":1381658,"Store_Name":"Target Store T3351","Store_Street_Address":"4500 Wisconsin Ave NW","Additonal_Address":null,"City":"Washington","State":"DC","Zip_Code":"20016","Zip4":"4628","County":"DIST OF COLUMBIA","Store_Type":"Super Store","Latitude":38.948536,"Longitude":-77.080551,"Incentive_Program":null,"Grantee_Name":null,"ObjectId":163348},"geometry":{"type":"Point","coordinates":[-77.080551,38.948536]}},{"type":"Feature","properties":{"Record_ID":1433865,"Store_Name":"Park View Farmers Market","Store_Street_Address":"3400 Georgia Ave Nw","Additonal_Address":null,"City":"Washington","State":"DC","Zip_Code":"20010","Zip4":"2502","County":"DIST OF COLUMBIA","Store_Type":"Farmers and Markets","Latitude":38.932289,"Longitude":-77.024132,"Incentive_Program":null,"Grantee_Name":null,"ObjectId":164484},"geometry":{"type":"Point","coordinates":[-77.024132,38.932289]}},{"type":"Feature","properties":{"Record_ID":1433683,"Store_Name":"Hayat Inc 1","Store_Street_Address":"6217 Dix St NE","Additonal_Address":null,"City":"Washington","State":"DC","Zip_Code":"20019","Zip4":"2880","County":"DIST OF COLUMBIA","Store_Type":"Convenience Store","Latitude":38.894161,"Longitude":-76.911507,"Incentive_Program":null,"Grantee_Name":null,"ObjectId":164605},"geometry":{"type":"Point","coordinates":[-76.911507,38.894161]}},{"type":"Feature","properties":{"Record_ID":1390658,"Store_Name":"Curbside Groceries The Food Store That Comes To U ","Store_Street_Address":"4900 Puerto Rico Ave NE","Additonal_Address":null,"City":"Washington","State":"DC","Zip_Code":"20017","Zip4":"2313","County":"DIST OF COLUMBIA","Store_Type":"Other","Latitude":38.947311,"Longitude":-76.999458,"Incentive_Program":null,"Grantee_Name":null,"ObjectId":164623},"geometry":{"type":"Point","coordinates":[-76.999458,38.947311]}},{"type":"Feature","properties":{"Record_ID":1332348,"Store_Name":"Neighborhood Pharmacy","Store_Street_Address":"1932 Martin Luther King Jr Ave SE","Additonal_Address":null,"City":"Washington","State":"DC","Zip_Code":"20020","Zip4":"7006","County":"DIST OF COLUMBIA","Store_Type":"Convenience Store","Latitude":38.866634,"Longitude":-76.988716,"Incentive_Program":null,"Grantee_Name":null,"ObjectId":165548},"geometry":{"type":"Point","coordinates":[-76.988716,38.866634]}},{"type":"Feature","properties":{"Record_ID":1357423,"Store_Name":"Target Store T3308","Store_Street_Address":"3505 Connecticut Ave NW","Additonal_Address":null,"City":"Washington","State":"DC","Zip_Code":"20008","Zip4":"2400","County":"DIST OF COLUMBIA","Store_Type":"Super Store","Latitude":38.935856,"Longitude":-77.058022,"Incentive_Program":null,"Grantee_Name":null,"ObjectId":166427},"geometry":{"type":"Point","coordinates":[-77.058022,38.935856]}},{"type":"Feature","properties":{"Record_ID":1357427,"Store_Name":"Target Store T3328","Store_Street_Address":"7828 Georgia Ave NW","Additonal_Address":null,"City":"Washington","State":"DC","Zip_Code":"20012","Zip4":"1305","County":"DIST OF COLUMBIA","Store_Type":"Super Store","Latitude":38.984455,"Longitude":-77.026985,"Incentive_Program":null,"Grantee_Name":null,"ObjectId":166429},"geometry":{"type":"Point","coordinates":[-77.026985,38.984455]}},{"type":"Feature","properties":{"Record_ID":1207742,"Store_Name":"Fiyameta Grocery","Store_Street_Address":"104 Kennedy St NW","Additonal_Address":null,"City":"Washington","State":"DC","Zip_Code":"20011","Zip4":"5213","County":"DIST OF COLUMBIA","Store_Type":"Grocery Store","Latitude":38.956543,"Longitude":-77.012093,"Incentive_Program":null,"Grantee_Name":null,"ObjectId":166541},"geometry":{"type":"Point","coordinates":[-77.012093,38.956543]}},{"type":"Feature","properties":{"Record_ID":1571144,"Store_Name":"Benning Road Shell","Store_Street_Address":"3355 Benning Rd NE","Additonal_Address":null,"City":"Washington","State":"DC","Zip_Code":"20019","Zip4":"1502","County":"DIST OF COLUMBIA","Store_Type":"Convenience Store","Latitude":38.896297,"Longitude":-76.958916,"Incentive_Program":null,"Grantee_Name":null,"ObjectId":166690},"geometry":{"type":"Point","coordinates":[-76.958916,38.896297]}},{"type":"Feature","properties":{"Record_ID":1434003,"Store_Name":"South Capitol Discount Tobacco & Grocery Inc","Store_Street_Address":"4675 S Capitol St SW","Additonal_Address":null,"City":"Washington","State":"DC","Zip_Code":"20032","Zip4":"2717","County":"DIST OF COLUMBIA","Store_Type":"Convenience Store","Latitude":38.821198,"Longitude":-77.001785,"Incentive_Program":null,"Grantee_Name":null,"ObjectId":167301},"geometry":{"type":"Point","coordinates":[-77.001785,38.821198]}},{"type":"Feature","properties":{"Record_ID":1449866,"Store_Name":"7-ELEVEN 36428H","Store_Street_Address":"3707-371 14th st","Additonal_Address":null,"City":"Washington","State":"DC","Zip_Code":"20010","Zip4":"    ","County":"DIST OF COLUMBIA","Store_Type":"Convenience Store","Latitude":38.93742,"Longitude":-77.03244,"Incentive_Program":null,"Grantee_Name":null,"ObjectId":167781},"geometry":{"type":"Point","coordinates":[-77.03244,38.93742]}},{"type":"Feature","properties":{"Record_ID":1338177,"Store_Name":"A1 Grocery Store ","Store_Street_Address":"615 Division Ave NE","Additonal_Address":null,"City":"Washington","State":"DC","Zip_Code":"20019","Zip4":"5457","County":"DIST OF COLUMBIA","Store_Type":"Grocery Store","Latitude":38.897865,"Longitude":-76.925529,"Incentive_Program":null,"Grantee_Name":"DC Central Kitchen Inc","ObjectId":168065},"geometry":{"type":"Point","coordinates":[-76.925529,38.897865]}},{"type":"Feature","properties":{"Record_ID":1465502,"Store_Name":"Blu December","Store_Street_Address":"4218 10th St NE","Additonal_Address":null,"City":"Washington","State":"DC","Zip_Code":"20017","Zip4":"2121","County":"DIST OF COLUMBIA","Store_Type":"Farmers and Markets","Latitude":38.94165,"Longitude":-76.992867,"Incentive_Program":null,"Grantee_Name":null,"ObjectId":168104},"geometry":{"type":"Point","coordinates":[-76.992867,38.94165]}},{"type":"Feature","properties":{"Record_ID":1341371,"Store_Name":"Whole Foods Market 10563","Store_Street_Address":"101 H Street SE","Additonal_Address":null,"City":"Washington","State":"DC","Zip_Code":"20002","Zip4":"    ","County":"DIST OF COLUMBIA","Store_Type":"Super Store","Latitude":38.88044,"Longitude":-77.005547,"Incentive_Program":null,"Grantee_Name":null,"ObjectId":169040},"geometry":{"type":"Point","coordinates":[-77.005547,38.88044]}},{"type":"Feature","properties":{"Record_ID":1431542,"Store_Name":"La Herradura Supermarket ","Store_Street_Address":"3412 Georgia Ave NW","Additonal_Address":null,"City":"Washington","State":"DC","Zip_Code":"20010","Zip4":"2502","County":"DIST OF COLUMBIA","Store_Type":"Grocery Store","Latitude":38.932404,"Longitude":-77.024055,"Incentive_Program":null,"Grantee_Name":null,"ObjectId":169078},"geometry":{"type":"Point","coordinates":[-77.024055,38.932404]}},{"type":"Feature","properties":{"Record_ID":1432504,"Store_Name":"Minnesota Seafood","Store_Street_Address":"3847 Minnesota Ave NE","Additonal_Address":null,"City":"Washington","State":"DC","Zip_Code":"20019","Zip4":"2660","County":"DIST OF COLUMBIA","Store_Type":"Specialty Store","Latitude":38.89304,"Longitude":-76.950363,"Incentive_Program":null,"Grantee_Name":null,"ObjectId":169201},"geometry":{"type":"Point","coordinates":[-76.950363,38.89304]}},{"type":"Feature","properties":{"Record_ID":1341473,"Store_Name":"Brookland Supermarket And Deli NOT CHAIN","Store_Street_Address":"2815 7th St NE","Additonal_Address":null,"City":"Washington","State":"DC","Zip_Code":"20017","Zip4":"1309","County":"DIST OF COLUMBIA","Store_Type":"Convenience Store","Latitude":38.926125,"Longitude":-76.995872,"Incentive_Program":null,"Grantee_Name":"DC Central Kitchen Inc","ObjectId":170744},"geometry":{"type":"Point","coordinates":[-76.995872,38.926125]}},{"type":"Feature","properties":{"Record_ID":1341529,"Store_Name":"Nam's Market","Store_Street_Address":"1327 W St SE","Additonal_Address":null,"City":"Washington","State":"DC","Zip_Code":"20020","Zip4":"5757","County":"DIST OF COLUMBIA","Store_Type":"Convenience Store","Latitude":38.864204,"Longitude":-76.986748,"Incentive_Program":null,"Grantee_Name":"DC Central Kitchen Inc","ObjectId":170959},"geometry":{"type":"Point","coordinates":[-76.986748,38.864204]}},{"type":"Feature","properties":{"Record_ID":1409337,"Store_Name":"U First Mart Inc 1","Store_Street_Address":"1942 1st St NW","Additonal_Address":null,"City":"Washington","State":"DC","Zip_Code":"20001","Zip4":"1060","County":"DIST OF COLUMBIA","Store_Type":"Convenience Store","Latitude":38.916862,"Longitude":-77.012421,"Incentive_Program":null,"Grantee_Name":null,"ObjectId":171396},"geometry":{"type":"Point","coordinates":[-77.012421,38.916862]}},{"type":"Feature","properties":{"Record_ID":1410104,"Store_Name":"CVS Pharmacy 11231","Store_Street_Address":"15 I Street SE","Additonal_Address":null,"City":"Washington","State":"DC","Zip_Code":"20003","Zip4":"    ","County":"DIST OF COLUMBIA","Store_Type":"Pharmacy","Latitude":38.879101,"Longitude":-77.008148,"Incentive_Program":null,"Grantee_Name":null,"ObjectId":172779},"geometry":{"type":"Point","coordinates":[-77.008148,38.879101]}},{"type":"Feature","properties":{"Record_ID":1618091,"Store_Name":"Capitol Convenience","Store_Street_Address":"1400 N Capitol St NW","Additonal_Address":null,"City":"Washington","State":"DC","Zip_Code":"20002","Zip4":"3342","County":"DIST OF COLUMBIA","Store_Type":"Convenience Store","Latitude":38.908726,"Longitude":-77.009407,"Incentive_Program":null,"Grantee_Name":null,"ObjectId":173102},"geometry":{"type":"Point","coordinates":[-77.009407,38.908726]}},{"type":"Feature","properties":{"Record_ID":1423432,"Store_Name":"Splash Liquor Wine And Groceries","Store_Street_Address":"213 Upshur St NW","Additonal_Address":null,"City":"Washington","State":"DC","Zip_Code":"20011","Zip4":"4847","County":"DIST OF COLUMBIA","Store_Type":"Convenience Store","Latitude":38.942463,"Longitude":-77.014343,"Incentive_Program":null,"Grantee_Name":null,"ObjectId":173422},"geometry":{"type":"Point","coordinates":[-77.014343,38.942463]}},{"type":"Feature","properties":{"Record_ID":1453621,"Store_Name":"Wawa 6008","Store_Street_Address":"1250 H Street NW","Additonal_Address":null,"City":"Washington","State":"DC","Zip_Code":"20005","Zip4":"    ","County":"DIST OF COLUMBIA","Store_Type":"Convenience Store","Latitude":38.899567,"Longitude":-77.029106,"Incentive_Program":null,"Grantee_Name":null,"ObjectId":173592},"geometry":{"type":"Point","coordinates":[-77.029106,38.899567]}},{"type":"Feature","properties":{"Record_ID":1410876,"Store_Name":"Whole Foods Market 10651","Store_Street_Address":"967 Florida Ave NW","Additonal_Address":null,"City":"Washington","State":"DC","Zip_Code":"20001","Zip4":"4001","County":"DIST OF COLUMBIA","Store_Type":"Super Store","Latitude":38.919842,"Longitude":-77.024666,"Incentive_Program":null,"Grantee_Name":null,"ObjectId":174146},"geometry":{"type":"Point","coordinates":[-77.024666,38.919842]}},{"type":"Feature","properties":{"Record_ID":1410887,"Store_Name":"Wawa Store 6007","Store_Street_Address":"1 Thomas Cir NW","Additonal_Address":null,"City":"Washington","State":"DC","Zip_Code":"20005","Zip4":"5801","County":"DIST OF COLUMBIA","Store_Type":"Convenience Store","Latitude":38.90538,"Longitude":-77.0326,"Incentive_Program":null,"Grantee_Name":null,"ObjectId":174168},"geometry":{"type":"Point","coordinates":[-77.0326,38.90538]}},{"type":"Feature","properties":{"Record_ID":1476753,"Store_Name":"5th St Market 1","Store_Street_Address":"1245 5th St NW","Additonal_Address":null,"City":"Washington","State":"DC","Zip_Code":"20001","Zip4":"4876","County":"DIST OF COLUMBIA","Store_Type":"Convenience Store","Latitude":38.907112,"Longitude":-77.018684,"Incentive_Program":null,"Grantee_Name":null,"ObjectId":174590},"geometry":{"type":"Point","coordinates":[-77.018684,38.907112]}},{"type":"Feature","properties":{"Record_ID":1412874,"Store_Name":"Safeway 3217","Store_Street_Address":"415 14th St SE","Additonal_Address":null,"City":"Washington","State":"DC","Zip_Code":"20003","Zip4":"3002","County":"DIST OF COLUMBIA","Store_Type":"Supermarket","Latitude":38.883682,"Longitude":-76.986328,"Incentive_Program":null,"Grantee_Name":null,"ObjectId":177040},"geometry":{"type":"Point","coordinates":[-76.986328,38.883682]}},{"type":"Feature","properties":{"Record_ID":1478203,"Store_Name":"Benning Market","Store_Street_Address":"2001 Benning Rd NE","Additonal_Address":"Apt 102","City":"Washington","State":"DC","Zip_Code":"20002","Zip4":"4736","County":"DIST OF COLUMBIA","Store_Type":"Convenience Store","Latitude":38.898464,"Longitude":-76.975388,"Incentive_Program":null,"Grantee_Name":null,"ObjectId":177217},"geometry":{"type":"Point","coordinates":[-76.975388,38.898464]}},{"type":"Feature","properties":{"Record_ID":1585698,"Store_Name":"Hiwot Market Inc","Store_Street_Address":"5331 Georgia Ave NW","Additonal_Address":null,"City":"Washington","State":"DC","Zip_Code":"20011","Zip4":"3955","County":"DIST OF COLUMBIA","Store_Type":"Other","Latitude":38.954777,"Longitude":-77.027573,"Incentive_Program":null,"Grantee_Name":null,"ObjectId":177224},"geometry":{"type":"Point","coordinates":[-77.027573,38.954777]}},{"type":"Feature","properties":{"Record_ID":1570938,"Store_Name":"Anania Market","Store_Street_Address":"2921 Georgia Ave NW","Additonal_Address":null,"City":"Washington","State":"DC","Zip_Code":"20001","Zip4":"3826","County":"DIST OF COLUMBIA","Store_Type":"Convenience Store","Latitude":38.92802,"Longitude":-77.022751,"Incentive_Program":null,"Grantee_Name":null,"ObjectId":177897},"geometry":{"type":"Point","coordinates":[-77.022751,38.92802]}},{"type":"Feature","properties":{"Record_ID":1574321,"Store_Name":"Flagler Market","Store_Street_Address":"2200 Flagler Pl NW","Additonal_Address":null,"City":"Washington","State":"DC","Zip_Code":"20001","Zip4":"1615","County":"DIST OF COLUMBIA","Store_Type":"Convenience Store","Latitude":38.919312,"Longitude":-77.013794,"Incentive_Program":null,"Grantee_Name":null,"ObjectId":177947},"geometry":{"type":"Point","coordinates":[-77.013794,38.919312]}},{"type":"Feature","properties":{"Record_ID":1587439,"Store_Name":"Lucky Corner Store 1","Store_Street_Address":"5415 Georgia Ave NW","Additonal_Address":null,"City":"Washington","State":"DC","Zip_Code":"20011","Zip4":"3909","County":"DIST OF COLUMBIA","Store_Type":"Convenience Store","Latitude":38.955681,"Longitude":-77.02771,"Incentive_Program":null,"Grantee_Name":null,"ObjectId":178101},"geometry":{"type":"Point","coordinates":[-77.02771,38.955681]}},{"type":"Feature","properties":{"Record_ID":1406807,"Store_Name":"Metro Supermarket","Store_Street_Address":"2130 P Street NW","Additonal_Address":null,"City":"Washington","State":"DC","Zip_Code":"20037","Zip4":"    ","County":"DIST OF COLUMBIA","Store_Type":"Grocery Store","Latitude":38.909492,"Longitude":-77.048363,"Incentive_Program":null,"Grantee_Name":null,"ObjectId":178943},"geometry":{"type":"Point","coordinates":[-77.048363,38.909492]}},{"type":"Feature","properties":{"Record_ID":1426069,"Store_Name":"Samber Market 1","Store_Street_Address":"3243 Mount Pleasant St NW","Additonal_Address":null,"City":"Washington","State":"DC","Zip_Code":"20010","Zip4":"2103","County":"DIST OF COLUMBIA","Store_Type":"Convenience Store","Latitude":38.932034,"Longitude":-77.038429,"Incentive_Program":null,"Grantee_Name":null,"ObjectId":179334},"geometry":{"type":"Point","coordinates":[-77.038429,38.932034]}},{"type":"Feature","properties":{"Record_ID":1597137,"Store_Name":"Martha's Market","Store_Street_Address":"2400 Minnesota Ave SE","Additonal_Address":null,"City":"Washington","State":"DC","Zip_Code":"20020","Zip4":"5328","County":"DIST OF COLUMBIA","Store_Type":"Convenience Store","Latitude":38.87299,"Longitude":-76.972252,"Incentive_Program":null,"Grantee_Name":null,"ObjectId":179614},"geometry":{"type":"Point","coordinates":[-76.972252,38.87299]}},{"type":"Feature","properties":{"Record_ID":1438247,"Store_Name":"Chesapeake Big Market","Store_Street_Address":"601 Chesapeake St SE","Additonal_Address":null,"City":"Washington","State":"DC","Zip_Code":"20032","Zip4":"3635","County":"DIST OF COLUMBIA","Store_Type":"Convenience Store","Latitude":38.829006,"Longitude":-76.998291,"Incentive_Program":null,"Grantee_Name":"DC Central Kitchen Inc","ObjectId":179679},"geometry":{"type":"Point","coordinates":[-76.998291,38.829006]}},{"type":"Feature","properties":{"Record_ID":1456362,"Store_Name":"Amazon Go Grocery IDC4","Store_Street_Address":"1733 14th St NW","Additonal_Address":null,"City":"Washington","State":"DC","Zip_Code":"20009","Zip4":"4308","County":"DIST OF COLUMBIA","Store_Type":"Other","Latitude":38.913208,"Longitude":-77.031738,"Incentive_Program":null,"Grantee_Name":null,"ObjectId":180183},"geometry":{"type":"Point","coordinates":[-77.031738,38.913208]}},{"type":"Feature","properties":{"Record_ID":1413867,"Store_Name":"DC Supermart","Store_Street_Address":"4975 South Dakota Ave NE","Additonal_Address":null,"City":"Washington","State":"DC","Zip_Code":"20017","Zip4":"3927","County":"DIST OF COLUMBIA","Store_Type":"Convenience Store","Latitude":38.950035,"Longitude":-76.992638,"Incentive_Program":null,"Grantee_Name":null,"ObjectId":181400},"geometry":{"type":"Point","coordinates":[-76.992638,38.950035]}},{"type":"Feature","properties":{"Record_ID":1600210,"Store_Name":"Freshfarm Centronia Upshur Market","Store_Street_Address":"1288 Upshur St Nw","Additonal_Address":null,"City":"Washington","State":"DC","Zip_Code":"20011","Zip4":"5626","County":"DIST OF COLUMBIA","Store_Type":"Farmers and Markets","Latitude":38.941582,"Longitude":-77.02877,"Incentive_Program":null,"Grantee_Name":null,"ObjectId":183432},"geometry":{"type":"Point","coordinates":[-77.02877,38.941582]}},{"type":"Feature","properties":{"Record_ID":1491688,"Store_Name":"Jm Enterprise Llc","Store_Street_Address":"1231 New York Ave NE","Additonal_Address":null,"City":"Washington","State":"DC","Zip_Code":"20002","Zip4":"1628","County":"DIST OF COLUMBIA","Store_Type":"Convenience Store","Latitude":38.914066,"Longitude":-76.988586,"Incentive_Program":null,"Grantee_Name":null,"ObjectId":183678},"geometry":{"type":"Point","coordinates":[-76.988586,38.914066]}},{"type":"Feature","properties":{"Record_ID":1416308,"Store_Name":"Express Convenience Store LLC","Store_Street_Address":"2031 Benning Rd NE","Additonal_Address":null,"City":"Washington","State":"DC","Zip_Code":"20002","Zip4":"4725","County":"DIST OF COLUMBIA","Store_Type":"Convenience Store","Latitude":38.898323,"Longitude":-76.974442,"Incentive_Program":null,"Grantee_Name":null,"ObjectId":184740},"geometry":{"type":"Point","coordinates":[-76.974442,38.898323]}},{"type":"Feature","properties":{"Record_ID":1517578,"Store_Name":"Lidl 1436","Store_Street_Address":"2224 Town Center Dr SE","Additonal_Address":null,"City":"Washington","State":"DC","Zip_Code":"20020","Zip4":"4000","County":"DIST OF COLUMBIA","Store_Type":"Super Store","Latitude":38.861549,"Longitude":-76.967583,"Incentive_Program":null,"Grantee_Name":null,"ObjectId":185512},"geometry":{"type":"Point","coordinates":[-76.967583,38.861549]}},{"type":"Feature","properties":{"Record_ID":1573561,"Store_Name":"Petworth Community Market","Store_Street_Address":"4021 9th St NW","Additonal_Address":null,"City":"Washington","State":"DC","Zip_Code":"20011","Zip4":"5808","County":"DIST OF COLUMBIA","Store_Type":"Farmers and Markets","Latitude":38.94051,"Longitude":-77.024704,"Incentive_Program":null,"Grantee_Name":null,"ObjectId":185901},"geometry":{"type":"Point","coordinates":[-77.024704,38.94051]}},{"type":"Feature","properties":{"Record_ID":1498923,"Store_Name":"Wonder Mart Convenience","Store_Street_Address":"2743 Martin Luther King Jr Ave SE","Additonal_Address":null,"City":"Washington","State":"DC","Zip_Code":"20032","Zip4":"2608","County":"DIST OF COLUMBIA","Store_Type":"Convenience Store","Latitude":38.846939,"Longitude":-76.996414,"Incentive_Program":null,"Grantee_Name":null,"ObjectId":186798},"geometry":{"type":"Point","coordinates":[-76.996414,38.846939]}},{"type":"Feature","properties":{"Record_ID":1518597,"Store_Name":"Trinity Grill & Social Marketplace","Store_Street_Address":"200 Michigan Ave NE","Additonal_Address":null,"City":"Washington","State":"DC","Zip_Code":"20017","Zip4":"1005","County":"DIST OF COLUMBIA","Store_Type":"Convenience Store","Latitude":38.929607,"Longitude":-77.004097,"Incentive_Program":null,"Grantee_Name":null,"ObjectId":187176},"geometry":{"type":"Point","coordinates":[-77.004097,38.929607]}},{"type":"Feature","properties":{"Record_ID":1492306,"Store_Name":"721 Shop & Run Inc","Store_Street_Address":"721 H St NE","Additonal_Address":null,"City":"Washington","State":"DC","Zip_Code":"20002","Zip4":"3626","County":"DIST OF COLUMBIA","Store_Type":"Convenience Store","Latitude":38.900021,"Longitude":-76.995201,"Incentive_Program":null,"Grantee_Name":null,"ObjectId":187657},"geometry":{"type":"Point","coordinates":[-76.995201,38.900021]}},{"type":"Feature","properties":{"Record_ID":1492039,"Store_Name":"Dmv Comvenience Inc","Store_Street_Address":"4053 Minnesota Ave NE","Additonal_Address":null,"City":"Washington","State":"DC","Zip_Code":"20019","Zip4":"3541","County":"DIST OF COLUMBIA","Store_Type":"Convenience Store","Latitude":38.896172,"Longitude":-76.947525,"Incentive_Program":null,"Grantee_Name":null,"ObjectId":187718},"geometry":{"type":"Point","coordinates":[-76.947525,38.896172]}},{"type":"Feature","properties":{"Record_ID":1482102,"Store_Name":"Nashim Llc","Store_Street_Address":"3701 12th St NE","Additonal_Address":null,"City":"Washington","State":"DC","Zip_Code":"20017","Zip4":"2534","County":"DIST OF COLUMBIA","Store_Type":"Convenience Store","Latitude":38.934799,"Longitude":-76.990875,"Incentive_Program":null,"Grantee_Name":null,"ObjectId":188789},"geometry":{"type":"Point","coordinates":[-76.990875,38.934799]}},{"type":"Feature","properties":{"Record_ID":1536702,"Store_Name":"Food 7 Store","Store_Street_Address":"1830 Benning Rd NE","Additonal_Address":null,"City":"Washington","State":"DC","Zip_Code":"20002","Zip4":"7212","County":"DIST OF COLUMBIA","Store_Type":"Convenience Store","Latitude":38.899185,"Longitude":-76.976547,"Incentive_Program":null,"Grantee_Name":null,"ObjectId":191414},"geometry":{"type":"Point","coordinates":[-76.976547,38.899185]}},{"type":"Feature","properties":{"Record_ID":1536769,"Store_Name":"Pufh 3 - Minnesota Csa","Store_Street_Address":"322 40th St NE","Additonal_Address":null,"City":"Washington","State":"DC","Zip_Code":"20019","Zip4":"3372","County":"DIST OF COLUMBIA","Store_Type":"Farmers and Markets","Latitude":38.893139,"Longitude":-76.947456,"Incentive_Program":null,"Grantee_Name":null,"ObjectId":191439},"geometry":{"type":"Point","coordinates":[-76.947456,38.893139]}},{"type":"Feature","properties":{"Record_ID":1493506,"Store_Name":"C.r.i.s.p. Market","Store_Street_Address":"1901 Mississippi Ave","Additonal_Address":"Suite 101","City":"Washington","State":"DC","Zip_Code":"20032","Zip4":"    ","County":"DIST OF COLUMBIA","Store_Type":"Farmers and Markets","Latitude":38.843563,"Longitude":-76.975327,"Incentive_Program":null,"Grantee_Name":null,"ObjectId":191816},"geometry":{"type":"Point","coordinates":[-76.975327,38.843563]}},{"type":"Feature","properties":{"Record_ID":1493861,"Store_Name":"Uptown Exxon","Store_Street_Address":"3535 Connecticut Ave NW","Additonal_Address":null,"City":"Washington","State":"DC","Zip_Code":"20008","Zip4":"2402","County":"DIST OF COLUMBIA","Store_Type":"Convenience Store","Latitude":38.936569,"Longitude":-77.058548,"Incentive_Program":null,"Grantee_Name":null,"ObjectId":191938},"geometry":{"type":"Point","coordinates":[-77.058548,38.936569]}},{"type":"Feature","properties":{"Record_ID":1537353,"Store_Name":"Argyle Convenience Store","Store_Street_Address":"3220 17th Street  N.w.","Additonal_Address":"Unit # C-100","City":"Washington","State":"DC","Zip_Code":"20010","Zip4":"    ","County":"DIST OF COLUMBIA","Store_Type":"Convenience Store","Latitude":38.932304,"Longitude":-77.039223,"Incentive_Program":null,"Grantee_Name":null,"ObjectId":192098},"geometry":{"type":"Point","coordinates":[-77.039223,38.932304]}},{"type":"Feature","properties":{"Record_ID":1520176,"Store_Name":"Dawa Group Llc","Store_Street_Address":"420 Rhode Island Ave NW","Additonal_Address":null,"City":"Washington","State":"DC","Zip_Code":"20001","Zip4":"1873","County":"DIST OF COLUMBIA","Store_Type":"Convenience Store","Latitude":38.913315,"Longitude":-77.018173,"Incentive_Program":null,"Grantee_Name":null,"ObjectId":194052},"geometry":{"type":"Point","coordinates":[-77.018173,38.913315]}},{"type":"Feature","properties":{"Record_ID":1586660,"Store_Name":"The Fresh Food Factory Market Ste","Store_Street_Address":"1110 Oak Dr SE","Additonal_Address":null,"City":"Washington","State":"DC","Zip_Code":"20032","Zip4":"5951","County":"DIST OF COLUMBIA","Store_Type":"Convenience Store","Latitude":38.846195,"Longitude":-76.990204,"Incentive_Program":null,"Grantee_Name":null,"ObjectId":194799},"geometry":{"type":"Point","coordinates":[-76.990204,38.846195]}},{"type":"Feature","properties":{"Record_ID":1519890,"Store_Name":"Loyal Market 1","Store_Street_Address":"4003 Gault Pl NE","Additonal_Address":null,"City":"Washington","State":"DC","Zip_Code":"20019","Zip4":"3534","County":"DIST OF COLUMBIA","Store_Type":"Convenience Store","Latitude":38.898914,"Longitude":-76.945862,"Incentive_Program":null,"Grantee_Name":null,"ObjectId":194840},"geometry":{"type":"Point","coordinates":[-76.945862,38.898914]}},{"type":"Feature","properties":{"Record_ID":1537619,"Store_Name":"Freshfarm Anacostia Community Museum Farm Stand","Store_Street_Address":"1901 Fort Pl SE","Additonal_Address":null,"City":"Washington","State":"DC","Zip_Code":"20020","Zip4":"3298","County":"DIST OF COLUMBIA","Store_Type":"Farmers and Markets","Latitude":38.856579,"Longitude":-76.976845,"Incentive_Program":null,"Grantee_Name":null,"ObjectId":195128},"geometry":{"type":"Point","coordinates":[-76.976845,38.856579]}},{"type":"Feature","properties":{"Record_ID":1537623,"Store_Name":"Pufh 2 - Ccdc Csa","Store_Street_Address":"1098 New York Ave Nw","Additonal_Address":null,"City":"Washington","State":"DC","Zip_Code":"20001","Zip4":"    ","County":"DIST OF COLUMBIA","Store_Type":"Farmers and Markets","Latitude":38.901012,"Longitude":-77.026932,"Incentive_Program":null,"Grantee_Name":null,"ObjectId":195130},"geometry":{"type":"Point","coordinates":[-77.026932,38.901012]}},{"type":"Feature","properties":{"Record_ID":1507557,"Store_Name":"Wegmans Wisconsin Ave 143","Store_Street_Address":"41 Ridge Sq NW","Additonal_Address":null,"City":"Washington","State":"DC","Zip_Code":"20016","Zip4":"2908","County":"DIST OF COLUMBIA","Store_Type":"Supermarket","Latitude":38.940262,"Longitude":-77.077087,"Incentive_Program":null,"Grantee_Name":null,"ObjectId":196176},"geometry":{"type":"Point","coordinates":[-77.077087,38.940262]}},{"type":"Feature","properties":{"Record_ID":1538392,"Store_Name":"7-ELEVEN 37325H","Store_Street_Address":"1645 Connecticut Ave NW","Additonal_Address":null,"City":"Washington","State":"DC","Zip_Code":"20009","Zip4":"1054","County":"DIST OF COLUMBIA","Store_Type":"Convenience Store","Latitude":38.912392,"Longitude":-77.044548,"Incentive_Program":null,"Grantee_Name":null,"ObjectId":196742},"geometry":{"type":"Point","coordinates":[-77.044548,38.912392]}},{"type":"Feature","properties":{"Record_ID":1487218,"Store_Name":"Ocean Front Liquors","Store_Street_Address":"4682 Mlk Jr Ave SW","Additonal_Address":null,"City":"Washington","State":"DC","Zip_Code":"20032","Zip4":"1132","County":"DIST OF COLUMBIA","Store_Type":"Convenience Store","Latitude":38.821129,"Longitude":-77.010651,"Incentive_Program":null,"Grantee_Name":null,"ObjectId":197218},"geometry":{"type":"Point","coordinates":[-77.010651,38.821129]}},{"type":"Feature","properties":{"Record_ID":1503626,"Store_Name":"Eleven Zero Seven 2","Store_Street_Address":"101 Rhode Island Ave NW","Additonal_Address":null,"City":"Washington","State":"DC","Zip_Code":"20001","Zip4":"1632","County":"DIST OF COLUMBIA","Store_Type":"Convenience Store","Latitude":38.915936,"Longitude":-77.012383,"Incentive_Program":null,"Grantee_Name":null,"ObjectId":198529},"geometry":{"type":"Point","coordinates":[-77.012383,38.915936]}},{"type":"Feature","properties":{"Record_ID":1539404,"Store_Name":"STREETS MARKET P St","Store_Street_Address":"2617 P St NW","Additonal_Address":null,"City":"Washington","State":"DC","Zip_Code":"20007","Zip4":"3063","County":"DIST OF COLUMBIA","Store_Type":"Supermarket","Latitude":38.909534,"Longitude":-77.055344,"Incentive_Program":null,"Grantee_Name":null,"ObjectId":199030},"geometry":{"type":"Point","coordinates":[-77.055344,38.909534]}},{"type":"Feature","properties":{"Record_ID":1538699,"Store_Name":"Abegaz & Choma","Store_Street_Address":"4913 Georgia Ave NW","Additonal_Address":null,"City":"Washington","State":"DC","Zip_Code":"20011","Zip4":"4525","County":"DIST OF COLUMBIA","Store_Type":"Other","Latitude":38.950188,"Longitude":-77.026886,"Incentive_Program":null,"Grantee_Name":null,"ObjectId":199162},"geometry":{"type":"Point","coordinates":[-77.026886,38.950188]}},{"type":"Feature","properties":{"Record_ID":1538830,"Store_Name":"Maya Market & Deli","Store_Street_Address":"233 Upshur St NW","Additonal_Address":null,"City":"Washington","State":"DC","Zip_Code":"20011","Zip4":"4847","County":"DIST OF COLUMBIA","Store_Type":"Convenience Store","Latitude":38.942364,"Longitude":-77.015228,"Incentive_Program":null,"Grantee_Name":null,"ObjectId":199215},"geometry":{"type":"Point","coordinates":[-77.015228,38.942364]}},{"type":"Feature","properties":{"Record_ID":1538846,"Store_Name":"Dmv Convenience Mart 1","Store_Street_Address":"5026 Benning Rd SE","Additonal_Address":null,"City":"Washington","State":"DC","Zip_Code":"20019","Zip4":"5838","County":"DIST OF COLUMBIA","Store_Type":"Convenience Store","Latitude":38.877853,"Longitude":-76.930794,"Incentive_Program":null,"Grantee_Name":null,"ObjectId":199222},"geometry":{"type":"Point","coordinates":[-76.930794,38.877853]}},{"type":"Feature","properties":{"Record_ID":1539137,"Store_Name":"K Fresh Market","Store_Street_Address":"2726 Martin Luther King Jr Ave Se","Additonal_Address":null,"City":"Washington","State":"DC","Zip_Code":"20020","Zip4":"    ","County":"DIST OF COLUMBIA","Store_Type":"Farmers and Markets","Latitude":38.851887,"Longitude":-76.994125,"Incentive_Program":null,"Grantee_Name":null,"ObjectId":199268},"geometry":{"type":"Point","coordinates":[-76.994125,38.851887]}},{"type":"Feature","properties":{"Record_ID":1496591,"Store_Name":"Natu Market","Store_Street_Address":"2339 Pennsylvania Ave SE","Additonal_Address":null,"City":"Washington","State":"DC","Zip_Code":"20020","Zip4":"6705","County":"DIST OF COLUMBIA","Store_Type":"Convenience Store","Latitude":38.87365,"Longitude":-76.97187,"Incentive_Program":null,"Grantee_Name":null,"ObjectId":199492},"geometry":{"type":"Point","coordinates":[-76.97187,38.87365]}},{"type":"Feature","properties":{"Record_ID":1496907,"Store_Name":"Royal Oats Farms NAFMNP","Store_Street_Address":"4631 Hunt Pl NE","Additonal_Address":null,"City":"Washington","State":"DC","Zip_Code":"20019","Zip4":"3619","County":"DIST OF COLUMBIA","Store_Type":"Farmers and Markets","Latitude":38.900486,"Longitude":-76.93512,"Incentive_Program":null,"Grantee_Name":null,"ObjectId":199600},"geometry":{"type":"Point","coordinates":[-76.93512,38.900486]}},{"type":"Feature","properties":{"Record_ID":1547265,"Store_Name":"7-Eleven 35279H","Store_Street_Address":"4000 Georgia Ave NW","Additonal_Address":null,"City":"Washington","State":"DC","Zip_Code":"20011","Zip4":"5857","County":"DIST OF COLUMBIA","Store_Type":"Convenience Store","Latitude":38.940029,"Longitude":-77.025597,"Incentive_Program":null,"Grantee_Name":null,"ObjectId":202150},"geometry":{"type":"Point","coordinates":[-77.025597,38.940029]}},{"type":"Feature","properties":{"Record_ID":1488560,"Store_Name":"Capital Tobacco & Grocery","Store_Street_Address":"1412 Pennsylvania Ave SE","Additonal_Address":"Apt B","City":"Washington","State":"DC","Zip_Code":"20003","Zip4":"3062","County":"DIST OF COLUMBIA","Store_Type":"Convenience Store","Latitude":38.880268,"Longitude":-76.984573,"Incentive_Program":null,"Grantee_Name":null,"ObjectId":202452},"geometry":{"type":"Point","coordinates":[-76.984573,38.880268]}},{"type":"Feature","properties":{"Record_ID":1510950,"Store_Name":"Dmv Mini Mart Inc 1","Store_Street_Address":"3915 S Capitol St SW","Additonal_Address":null,"City":"Washington","State":"DC","Zip_Code":"20032","Zip4":"2308","County":"DIST OF COLUMBIA","Store_Type":"Convenience Store","Latitude":38.832287,"Longitude":-77.008713,"Incentive_Program":null,"Grantee_Name":null,"ObjectId":203598},"geometry":{"type":"Point","coordinates":[-77.008713,38.832287]}},{"type":"Feature","properties":{"Record_ID":1156147,"Store_Name":"7-Eleven 25464A","Store_Street_Address":"4319 Wisconsin Ave Nw","Additonal_Address":null,"City":"Washington","State":"DC","Zip_Code":"20016","Zip4":"2139","County":"DIST OF COLUMBIA","Store_Type":"Convenience Store","Latitude":38.945198,"Longitude":-77.07811,"Incentive_Program":null,"Grantee_Name":null,"ObjectId":204265},"geometry":{"type":"Point","coordinates":[-77.07811,38.945198]}},{"type":"Feature","properties":{"Record_ID":797538,"Store_Name":"PAIK PRODUCE","Store_Street_Address":"225 7th St SE","Additonal_Address":"#9-s","City":"Washington","State":"DC","Zip_Code":"20003","Zip4":"4323","County":"DIST OF COLUMBIA","Store_Type":"Grocery Store","Latitude":38.886421,"Longitude":-76.996468,"Incentive_Program":null,"Grantee_Name":null,"ObjectId":204621},"geometry":{"type":"Point","coordinates":[-76.996468,38.886421]}},{"type":"Feature","properties":{"Record_ID":1540797,"Store_Name":"Silvermans Liquors","Store_Street_Address":"2033 Benning Rd NE","Additonal_Address":null,"City":"Washington","State":"DC","Zip_Code":"20002","Zip4":"4725","County":"DIST OF COLUMBIA","Store_Type":"Convenience Store","Latitude":38.898308,"Longitude":-76.97438,"Incentive_Program":null,"Grantee_Name":null,"ObjectId":204901},"geometry":{"type":"Point","coordinates":[-76.97438,38.898308]}},{"type":"Feature","properties":{"Record_ID":1490612,"Store_Name":"7-eleven 23097c","Store_Street_Address":"912 New Hampshire Ave NW","Additonal_Address":null,"City":"Washington","State":"DC","Zip_Code":"20037","Zip4":"2301","County":"DIST OF COLUMBIA","Store_Type":"Convenience Store","Latitude":38.901165,"Longitude":-77.051735,"Incentive_Program":null,"Grantee_Name":null,"ObjectId":205335},"geometry":{"type":"Point","coordinates":[-77.051735,38.901165]}},{"type":"Feature","properties":{"Record_ID":1490390,"Store_Name":"Dollar Tree 8923","Store_Street_Address":"5600 Georgia Ave NW","Additonal_Address":null,"City":"Washington","State":"DC","Zip_Code":"20011","Zip4":"2927","County":"DIST OF COLUMBIA","Store_Type":"Convenience Store","Latitude":38.957642,"Longitude":-77.028656,"Incentive_Program":null,"Grantee_Name":null,"ObjectId":205589},"geometry":{"type":"Point","coordinates":[-77.028656,38.957642]}},{"type":"Feature","properties":{"Record_ID":1542010,"Store_Name":"Shipley Super Market","Store_Street_Address":"2283 Savannah St SE","Additonal_Address":null,"City":"Washington","State":"DC","Zip_Code":"20020","Zip4":"7557","County":"DIST OF COLUMBIA","Store_Type":"Convenience Store","Latitude":38.847591,"Longitude":-76.971321,"Incentive_Program":null,"Grantee_Name":"DC Central Kitchen Inc","ObjectId":206368},"geometry":{"type":"Point","coordinates":[-76.971321,38.847591]}},{"type":"Feature","properties":{"Record_ID":1542271,"Store_Name":"Georgia Convenience Store","Store_Street_Address":"3653 Georgia Ave NW","Additonal_Address":null,"City":"Washington","State":"DC","Zip_Code":"20010","Zip4":"1641","County":"DIST OF COLUMBIA","Store_Type":"Convenience Store","Latitude":38.936001,"Longitude":-77.023987,"Incentive_Program":null,"Grantee_Name":null,"ObjectId":209008},"geometry":{"type":"Point","coordinates":[-77.023987,38.936001]}},{"type":"Feature","properties":{"Record_ID":1551326,"Store_Name":"Whole Foods Market 10777","Store_Street_Address":"7130 12th St NW","Additonal_Address":null,"City":"Washington","State":"DC","Zip_Code":"20012","Zip4":"1779","County":"DIST OF COLUMBIA","Store_Type":"Super Store","Latitude":38.976101,"Longitude":-77.028168,"Incentive_Program":null,"Grantee_Name":null,"ObjectId":209158},"geometry":{"type":"Point","coordinates":[-77.028168,38.976101]}},{"type":"Feature","properties":{"Record_ID":1551394,"Store_Name":"Lidl 1542","Store_Street_Address":"3100 14th St NW","Additonal_Address":"Ste 116","City":"Washington","State":"DC","Zip_Code":"20010","Zip4":"2473","County":"DIST OF COLUMBIA","Store_Type":"Super Store","Latitude":38.92931,"Longitude":-77.03299,"Incentive_Program":null,"Grantee_Name":null,"ObjectId":209186},"geometry":{"type":"Point","coordinates":[-77.03299,38.92931]}},{"type":"Feature","properties":{"Record_ID":1551784,"Store_Name":"Quality 01 Convenience Store","Store_Street_Address":"2922 1/2 Martin Luther King Jr Ave SE","Additonal_Address":null,"City":"Washington","State":"DC","Zip_Code":"20032","Zip4":"2522","County":"DIST OF COLUMBIA","Store_Type":"Convenience Store","Latitude":38.845329,"Longitude":-76.99688,"Incentive_Program":null,"Grantee_Name":null,"ObjectId":209649},"geometry":{"type":"Point","coordinates":[-76.99688,38.845329]}},{"type":"Feature","properties":{"Record_ID":1560283,"Store_Name":"Freshfarm Kiddies Ms","Store_Street_Address":"1130 Varney St SE","Additonal_Address":null,"City":"Washington","State":"DC","Zip_Code":"20032","Zip4":"4372","County":"DIST OF COLUMBIA","Store_Type":"Farmers and Markets","Latitude":38.836845,"Longitude":-76.98806,"Incentive_Program":null,"Grantee_Name":null,"ObjectId":209800},"geometry":{"type":"Point","coordinates":[-76.98806,38.836845]}},{"type":"Feature","properties":{"Record_ID":1543216,"Store_Name":"Bladensburg Exxon","Store_Street_Address":"2230 New York Ave NE","Additonal_Address":null,"City":"Washington","State":"DC","Zip_Code":"20002","Zip4":"1937","County":"DIST OF COLUMBIA","Store_Type":"Convenience Store","Latitude":38.917698,"Longitude":-76.97316,"Incentive_Program":null,"Grantee_Name":null,"ObjectId":210475},"geometry":{"type":"Point","coordinates":[-76.97316,38.917698]}},{"type":"Feature","properties":{"Record_ID":1166442,"Store_Name":"7-Eleven 22639b","Store_Street_Address":"4443 Benning Rd NE","Additonal_Address":null,"City":"Washington","State":"DC","Zip_Code":"20019","Zip4":"4556","County":"DIST OF COLUMBIA","Store_Type":"Convenience Store","Latitude":38.890781,"Longitude":-76.938866,"Incentive_Program":null,"Grantee_Name":null,"ObjectId":210727},"geometry":{"type":"Point","coordinates":[-76.938866,38.890781]}},{"type":"Feature","properties":{"Record_ID":1259570,"Store_Name":"Smert Sun Market","Store_Street_Address":"415 Rhode Island Ave Ne","Additonal_Address":null,"City":"Washington","State":"DC","Zip_Code":"20002","Zip4":"1265","County":"DIST OF COLUMBIA","Store_Type":"Convenience Store","Latitude":38.91975,"Longitude":-77.000336,"Incentive_Program":null,"Grantee_Name":null,"ObjectId":210954},"geometry":{"type":"Point","coordinates":[-77.000336,38.91975]}},{"type":"Feature","properties":{"Record_ID":1475405,"Store_Name":"Whole Foods Market 10780","Store_Street_Address":"2323 Wisconsin Ave NW","Additonal_Address":null,"City":"Washington","State":"DC","Zip_Code":"20007","Zip4":"1844","County":"DIST OF COLUMBIA","Store_Type":"Super Store","Latitude":38.920933,"Longitude":-77.071617,"Incentive_Program":null,"Grantee_Name":null,"ObjectId":211929},"geometry":{"type":"Point","coordinates":[-77.071617,38.920933]}},{"type":"Feature","properties":{"Record_ID":1561646,"Store_Name":"7-Eleven 34293H","Store_Street_Address":"510 3rd St NE","Additonal_Address":null,"City":"Washington","State":"DC","Zip_Code":"20002","Zip4":"4921","County":"DIST OF COLUMBIA","Store_Type":"Convenience Store","Latitude":38.896511,"Longitude":-77.002281,"Incentive_Program":null,"Grantee_Name":null,"ObjectId":212680},"geometry":{"type":"Point","coordinates":[-77.002281,38.896511]}},{"type":"Feature","properties":{"Record_ID":1618624,"Store_Name":"International Progreso Market #4 3","Store_Street_Address":"607 Kennedy St NW","Additonal_Address":null,"City":"Washington","State":"DC","Zip_Code":"20011","Zip4":"3111","County":"DIST OF COLUMBIA","Store_Type":"Grocery Store","Latitude":38.956604,"Longitude":-77.021317,"Incentive_Program":null,"Grantee_Name":null,"ObjectId":213105},"geometry":{"type":"Point","coordinates":[-77.021317,38.956604]}},{"type":"Feature","properties":{"Record_ID":1583560,"Store_Name":"Meye Group Inc","Store_Street_Address":"2300 South Dakota Ave NE","Additonal_Address":null,"City":"Washington","State":"DC","Zip_Code":"20018","Zip4":"1624","County":"DIST OF COLUMBIA","Store_Type":"Convenience Store","Latitude":38.920864,"Longitude":-76.959549,"Incentive_Program":null,"Grantee_Name":null,"ObjectId":213236},"geometry":{"type":"Point","coordinates":[-76.959549,38.920864]}},{"type":"Feature","properties":{"Record_ID":1619965,"Store_Name":"Zeki Liquors","Store_Street_Address":"5916 Georgia Ave NW","Additonal_Address":null,"City":"Washington","State":"DC","Zip_Code":"20011","Zip4":"5120","County":"DIST OF COLUMBIA","Store_Type":"Convenience Store","Latitude":38.96175,"Longitude":-77.028229,"Incentive_Program":null,"Grantee_Name":null,"ObjectId":213991},"geometry":{"type":"Point","coordinates":[-77.028229,38.96175]}},{"type":"Feature","properties":{"Record_ID":1624545,"Store_Name":"ALDI 71179","Store_Street_Address":"5300 South Dakota Ave NE","Additonal_Address":"Suite C-01","City":"Washington","State":"DC","Zip_Code":"20011","Zip4":"    ","County":"DIST OF COLUMBIA","Store_Type":"Supermarket","Latitude":38.954536,"Longitude":-76.999725,"Incentive_Program":null,"Grantee_Name":null,"ObjectId":213992},"geometry":{"type":"Point","coordinates":[-76.999725,38.954536]}},{"type":"Feature","properties":{"Record_ID":824427,"Store_Name":"Yes Organic Market","Store_Street_Address":"3809 12th St NE","Additonal_Address":null,"City":"Washington","State":"DC","Zip_Code":"20017","Zip4":"2631","County":"DIST OF COLUMBIA","Store_Type":"Super Store","Latitude":38.93681,"Longitude":-76.990372,"Incentive_Program":null,"Grantee_Name":null,"ObjectId":214497},"geometry":{"type":"Point","coordinates":[-76.990372,38.93681]}},{"type":"Feature","properties":{"Record_ID":1230667,"Store_Name":"Northeast Supermarket","Store_Street_Address":"1201 Mount Olivet Rd Ne","Additonal_Address":null,"City":"Washington","State":"DC","Zip_Code":"20002","Zip4":"7802","County":"DIST OF COLUMBIA","Store_Type":"Grocery Store","Latitude":38.910084,"Longitude":-76.984749,"Incentive_Program":null,"Grantee_Name":null,"ObjectId":215645},"geometry":{"type":"Point","coordinates":[-76.984749,38.910084]}},{"type":"Feature","properties":{"Record_ID":1084130,"Store_Name":"Capitol Hill Food And Fuel LLC","Store_Street_Address":"1248 Pennsylvania Ave SE","Additonal_Address":null,"City":"Washington","State":"DC","Zip_Code":"20003","Zip4":"2226","County":"DIST OF COLUMBIA","Store_Type":"Convenience Store","Latitude":38.881779,"Longitude":-76.988701,"Incentive_Program":null,"Grantee_Name":null,"ObjectId":218589},"geometry":{"type":"Point","coordinates":[-76.988701,38.881779]}},{"type":"Feature","properties":{"Record_ID":1174880,"Store_Name":"MOM's Organic Market 12","Store_Street_Address":"1501 New York Ave Ne","Additonal_Address":null,"City":"Washington","State":"DC","Zip_Code":"20002","Zip4":"    ","County":"DIST OF COLUMBIA","Store_Type":"Super Store","Latitude":38.916229,"Longitude":-76.983353,"Incentive_Program":null,"Grantee_Name":null,"ObjectId":219314},"geometry":{"type":"Point","coordinates":[-76.983353,38.916229]}},{"type":"Feature","properties":{"Record_ID":1375263,"Store_Name":"CVS Pharmacy 11180","Store_Street_Address":"1001 16th St NW","Additonal_Address":null,"City":"Washington","State":"DC","Zip_Code":"20036","Zip4":"5794","County":"DIST OF COLUMBIA","Store_Type":"Pharmacy","Latitude":38.90313,"Longitude":-77.035934,"Incentive_Program":null,"Grantee_Name":null,"ObjectId":221215},"geometry":{"type":"Point","coordinates":[-77.035934,38.90313]}},{"type":"Feature","properties":{"Record_ID":1556708,"Store_Name":"CVS/Pharmacy 1335","Store_Street_Address":"3250 Pennsylvania Ave SE","Additonal_Address":null,"City":"Washington","State":"DC","Zip_Code":"20020","Zip4":"3712","County":"DIST OF COLUMBIA","Store_Type":"Pharmacy","Latitude":38.869251,"Longitude":-76.958969,"Incentive_Program":null,"Grantee_Name":null,"ObjectId":221265},"geometry":{"type":"Point","coordinates":[-76.958969,38.869251]}},{"type":"Feature","properties":{"Record_ID":1556709,"Store_Name":"CVS/Pharmacy 1347","Store_Street_Address":"6 Dupont Cir NW","Additonal_Address":null,"City":"Washington","State":"DC","Zip_Code":"20036","Zip4":"1108","County":"DIST OF COLUMBIA","Store_Type":"Pharmacy","Latitude":38.909447,"Longitude":-77.044487,"Incentive_Program":null,"Grantee_Name":null,"ObjectId":221279},"geometry":{"type":"Point","coordinates":[-77.044487,38.909447]}},{"type":"Feature","properties":{"Record_ID":1266789,"Store_Name":"Alabama Convenience","Store_Street_Address":"2209 Alabama Ave SE","Additonal_Address":null,"City":"Washington","State":"DC","Zip_Code":"20020","Zip4":"2709","County":"DIST OF COLUMBIA","Store_Type":"Convenience Store","Latitude":38.850677,"Longitude":-76.973701,"Incentive_Program":null,"Grantee_Name":null,"ObjectId":222143},"geometry":{"type":"Point","coordinates":[-76.973701,38.850677]}},{"type":"Feature","properties":{"Record_ID":1003958,"Store_Name":"7-Eleven Inc F 34582A","Store_Street_Address":"1755 Columbia Rd NW","Additonal_Address":null,"City":"Washington","State":"DC","Zip_Code":"20009","Zip4":"2813","County":"DIST OF COLUMBIA","Store_Type":"Convenience Store","Latitude":38.923634,"Longitude":-77.041306,"Incentive_Program":null,"Grantee_Name":null,"ObjectId":222274},"geometry":{"type":"Point","coordinates":[-77.041306,38.923634]}},{"type":"Feature","properties":{"Record_ID":1038274,"Store_Name":"7th L Street Market","Store_Street_Address":"700 L St SE","Additonal_Address":null,"City":"Washington","State":"DC","Zip_Code":"20003","Zip4":"3647","County":"DIST OF COLUMBIA","Store_Type":"Convenience Store","Latitude":38.877697,"Longitude":-76.995956,"Incentive_Program":null,"Grantee_Name":null,"ObjectId":222429},"geometry":{"type":"Point","coordinates":[-76.995956,38.877697]}},{"type":"Feature","properties":{"Record_ID":1186919,"Store_Name":"Eshet Injera","Store_Street_Address":"829 Kennedy St NW","Additonal_Address":null,"City":"Washington","State":"DC","Zip_Code":"20011","Zip4":"2913","County":"DIST OF COLUMBIA","Store_Type":"Other","Latitude":38.95631,"Longitude":-77.025269,"Incentive_Program":null,"Grantee_Name":null,"ObjectId":223918},"geometry":{"type":"Point","coordinates":[-77.025269,38.95631]}},{"type":"Feature","properties":{"Record_ID":918666,"Store_Name":"Yes Organic Market Petworth 6","Store_Street_Address":"4100 Georgia Ave NW","Additonal_Address":null,"City":"Washington","State":"DC","Zip_Code":"20011","Zip4":"5859","County":"DIST OF COLUMBIA","Store_Type":"Super Store","Latitude":38.941036,"Longitude":-77.025528,"Incentive_Program":null,"Grantee_Name":null,"ObjectId":225371},"geometry":{"type":"Point","coordinates":[-77.025528,38.941036]}},{"type":"Feature","properties":{"Record_ID":958081,"Store_Name":"Lamont Market","Store_Street_Address":"450 Lamont St NW","Additonal_Address":null,"City":"Washington","State":"DC","Zip_Code":"20010","Zip4":"2525","County":"DIST OF COLUMBIA","Store_Type":"Convenience Store","Latitude":38.931232,"Longitude":-77.019928,"Incentive_Program":null,"Grantee_Name":null,"ObjectId":226153},"geometry":{"type":"Point","coordinates":[-77.019928,38.931232]}},{"type":"Feature","properties":{"Record_ID":1206060,"Store_Name":"Abg Mart","Store_Street_Address":"2216 Martin Luther King Jr Ave SE","Additonal_Address":null,"City":"Washington","State":"DC","Zip_Code":"20020","Zip4":"5734","County":"DIST OF COLUMBIA","Store_Type":"Convenience Store","Latitude":38.864365,"Longitude":-76.989952,"Incentive_Program":null,"Grantee_Name":null,"ObjectId":226263},"geometry":{"type":"Point","coordinates":[-76.989952,38.864365]}},{"type":"Feature","properties":{"Record_ID":1272612,"Store_Name":"Wow Market & Deli LLC","Store_Street_Address":"6226 Georgia Ave Nw","Additonal_Address":null,"City":"Washington","State":"DC","Zip_Code":"20011","Zip4":"5108","County":"DIST OF COLUMBIA","Store_Type":"Convenience Store","Latitude":38.965752,"Longitude":-77.027664,"Incentive_Program":null,"Grantee_Name":null,"ObjectId":228167},"geometry":{"type":"Point","coordinates":[-77.027664,38.965752]}},{"type":"Feature","properties":{"Record_ID":1531491,"Store_Name":"Top Mart Inc 1","Store_Street_Address":"3109 Martin Luther King Jr Ave Se","Additonal_Address":"Ste B","City":"Washington","State":"DC","Zip_Code":"20032","Zip4":"1606","County":"DIST OF COLUMBIA","Store_Type":"Convenience Store","Latitude":38.843681,"Longitude":-76.999588,"Incentive_Program":null,"Grantee_Name":null,"ObjectId":228813},"geometry":{"type":"Point","coordinates":[-76.999588,38.843681]}},{"type":"Feature","properties":{"Record_ID":1531146,"Store_Name":"Yes Organic Foods","Store_Street_Address":"1825 Columbia Rd NW","Additonal_Address":null,"City":"Washington","State":"DC","Zip_Code":"20009","Zip4":"2005","County":"DIST OF COLUMBIA","Store_Type":"Grocery Store","Latitude":38.921818,"Longitude":-77.043739,"Incentive_Program":null,"Grantee_Name":null,"ObjectId":228954},"geometry":{"type":"Point","coordinates":[-77.043739,38.921818]}},{"type":"Feature","properties":{"Record_ID":1289382,"Store_Name":"7-eleven 22464e","Store_Street_Address":"333 Hawaii Ave NE","Additonal_Address":null,"City":"Washington","State":"DC","Zip_Code":"20011","Zip4":"4966","County":"DIST OF COLUMBIA","Store_Type":"Convenience Store","Latitude":38.941444,"Longitude":-77.000267,"Incentive_Program":null,"Grantee_Name":null,"ObjectId":229768},"geometry":{"type":"Point","coordinates":[-77.000267,38.941444]}},{"type":"Feature","properties":{"Record_ID":1077297,"Store_Name":"Harvey's Market","Store_Street_Address":"1309 5th St NE","Additonal_Address":null,"City":"Washington","State":"DC","Zip_Code":"20002","Zip4":"7084","County":"DIST OF COLUMBIA","Store_Type":"Specialty Store","Latitude":38.908726,"Longitude":-76.99765,"Incentive_Program":null,"Grantee_Name":null,"ObjectId":230374},"geometry":{"type":"Point","coordinates":[-76.99765,38.908726]}},{"type":"Feature","properties":{"Record_ID":1052966,"Store_Name":"Best World Supermarket","Store_Street_Address":"3178 Mount Pleasant St NW","Additonal_Address":null,"City":"Washington","State":"DC","Zip_Code":"20010","Zip4":"2745","County":"DIST OF COLUMBIA","Store_Type":"Grocery Store","Latitude":38.930977,"Longitude":-77.038284,"Incentive_Program":null,"Grantee_Name":null,"ObjectId":231598},"geometry":{"type":"Point","coordinates":[-77.038284,38.930977]}},{"type":"Feature","properties":{"Record_ID":1532567,"Store_Name":"Shepherd Market","Store_Street_Address":"1247 Shepherd St NW","Additonal_Address":null,"City":"Washington","State":"DC","Zip_Code":"20011","Zip4":"5611","County":"DIST OF COLUMBIA","Store_Type":"Convenience Store","Latitude":38.939957,"Longitude":-77.02948,"Incentive_Program":null,"Grantee_Name":null,"ObjectId":231890},"geometry":{"type":"Point","coordinates":[-77.02948,38.939957]}},{"type":"Feature","properties":{"Record_ID":1286879,"Store_Name":"7-eleven 37093","Store_Street_Address":"1400 Rhode Island Ave NE","Additonal_Address":null,"City":"Washington","State":"DC","Zip_Code":"20018","Zip4":"3709","County":"DIST OF COLUMBIA","Store_Type":"Convenience Store","Latitude":38.925144,"Longitude":-76.985229,"Incentive_Program":null,"Grantee_Name":null,"ObjectId":232309},"geometry":{"type":"Point","coordinates":[-76.985229,38.925144]}},{"type":"Feature","properties":{"Record_ID":1037766,"Store_Name":"7-Eleven Inc F 34321","Store_Street_Address":"1850 M Street NW","Additonal_Address":null,"City":"Washington","State":"DC","Zip_Code":"20036","Zip4":"    ","County":"DIST OF COLUMBIA","Store_Type":"Convenience Store","Latitude":38.905632,"Longitude":-77.042892,"Incentive_Program":null,"Grantee_Name":null,"ObjectId":233463},"geometry":{"type":"Point","coordinates":[-77.042892,38.905632]}},{"type":"Feature","properties":{"Record_ID":866160,"Store_Name":"Gray's Market","Store_Street_Address":"3306 Georgia Ave NW","Additonal_Address":null,"City":"Washington","State":"DC","Zip_Code":"20010","Zip4":"2513","County":"DIST OF COLUMBIA","Store_Type":"Convenience Store","Latitude":38.93129,"Longitude":-77.023811,"Incentive_Program":null,"Grantee_Name":null,"ObjectId":233512},"geometry":{"type":"Point","coordinates":[-77.023811,38.93129]}},{"type":"Feature","properties":{"Record_ID":968361,"Store_Name":"Penn Way Market","Store_Street_Address":"3833 Pennsylvania Ave SE","Additonal_Address":null,"City":"Washington","State":"DC","Zip_Code":"20020","Zip4":"1309","County":"DIST OF COLUMBIA","Store_Type":"Convenience Store","Latitude":38.865128,"Longitude":-76.951447,"Incentive_Program":null,"Grantee_Name":null,"ObjectId":234833},"geometry":{"type":"Point","coordinates":[-76.951447,38.865128]}},{"type":"Feature","properties":{"Record_ID":1103564,"Store_Name":"USDA Farmers Market","Store_Street_Address":"1401 Independence Ave & 12th St SW","Additonal_Address":null,"City":"Washington","State":"DC","Zip_Code":"20250","Zip4":"    ","County":"DIST OF COLUMBIA","Store_Type":"Farmers and Markets","Latitude":38.887569,"Longitude":-77.028183,"Incentive_Program":null,"Grantee_Name":null,"ObjectId":235342},"geometry":{"type":"Point","coordinates":[-77.028183,38.887569]}},{"type":"Feature","properties":{"Record_ID":1045516,"Store_Name":"Stop 4 All Food Mart","Store_Street_Address":"5001 Georgia Ave NW","Additonal_Address":"Unit 1","City":"Washington","State":"DC","Zip_Code":"20009","Zip4":"    ","County":"DIST OF COLUMBIA","Store_Type":"Convenience Store","Latitude":38.951012,"Longitude":-77.027267,"Incentive_Program":null,"Grantee_Name":null,"ObjectId":235473},"geometry":{"type":"Point","coordinates":[-77.027267,38.951012]}},{"type":"Feature","properties":{"Record_ID":1535145,"Store_Name":"Freshfarm Cleveland Park Farmers Market","Store_Street_Address":"3426 Connecticut Ave NW","Additonal_Address":null,"City":"Washington","State":"DC","Zip_Code":"20008","Zip4":"1306","County":"DIST OF COLUMBIA","Store_Type":"Farmers and Markets","Latitude":38.934891,"Longitude":-77.058586,"Incentive_Program":null,"Grantee_Name":null,"ObjectId":236058},"geometry":{"type":"Point","coordinates":[-77.058586,38.934891]}},{"type":"Feature","properties":{"Record_ID":1037769,"Store_Name":"7-eleven 11731a ","Store_Street_Address":"1900 Wyoming Ave NW","Additonal_Address":null,"City":"Washington","State":"DC","Zip_Code":"20009","Zip4":"5043","County":"DIST OF COLUMBIA","Store_Type":"Convenience Store","Latitude":38.918346,"Longitude":-77.045181,"Incentive_Program":null,"Grantee_Name":null,"ObjectId":236798},"geometry":{"type":"Point","coordinates":[-77.045181,38.918346]}},{"type":"Feature","properties":{"Record_ID":990375,"Store_Name":"Patron Convenience Store","Store_Street_Address":"3235 Pennsylvania Ave SE","Additonal_Address":null,"City":"Washington","State":"DC","Zip_Code":"20020","Zip4":"3711","County":"DIST OF COLUMBIA","Store_Type":"Convenience Store","Latitude":38.868465,"Longitude":-76.959435,"Incentive_Program":null,"Grantee_Name":null,"ObjectId":236910},"geometry":{"type":"Point","coordinates":[-76.959435,38.868465]}},{"type":"Feature","properties":{"Record_ID":1031362,"Store_Name":"J & M LLC","Store_Street_Address":"1601 New York Ave NE","Additonal_Address":null,"City":"Washington","State":"DC","Zip_Code":"20002","Zip4":"1725","County":"DIST OF COLUMBIA","Store_Type":"Convenience Store","Latitude":38.916992,"Longitude":-76.981163,"Incentive_Program":null,"Grantee_Name":null,"ObjectId":238344},"geometry":{"type":"Point","coordinates":[-76.981163,38.916992]}},{"type":"Feature","properties":{"Record_ID":745706,"Store_Name":"DAILY FISH OF CHESAPEAKE","Store_Street_Address":"2250 Sherman Ave NW","Additonal_Address":null,"City":"Washington","State":"DC","Zip_Code":"20001","Zip4":"4004","County":"DIST OF COLUMBIA","Store_Type":"Convenience Store","Latitude":38.920116,"Longitude":-77.025276,"Incentive_Program":null,"Grantee_Name":null,"ObjectId":238797},"geometry":{"type":"Point","coordinates":[-77.025276,38.920116]}},{"type":"Feature","properties":{"Record_ID":1149674,"Store_Name":"7-Eleven Inc F 36441A","Store_Street_Address":"908 17th St NW","Additonal_Address":null,"City":"Washington","State":"DC","Zip_Code":"20006","Zip4":"2502","County":"DIST OF COLUMBIA","Store_Type":"Convenience Store","Latitude":38.90147,"Longitude":-77.039474,"Incentive_Program":null,"Grantee_Name":null,"ObjectId":238945},"geometry":{"type":"Point","coordinates":[-77.039474,38.90147]}},{"type":"Feature","properties":{"Record_ID":1020558,"Store_Name":"7-Eleven Inc F 35278A","Store_Street_Address":"7401 Georgia Ave NW","Additonal_Address":null,"City":"Washington","State":"DC","Zip_Code":"20012","Zip4":"1721","County":"DIST OF COLUMBIA","Store_Type":"Convenience Store","Latitude":38.979664,"Longitude":-77.026413,"Incentive_Program":null,"Grantee_Name":null,"ObjectId":239338},"geometry":{"type":"Point","coordinates":[-77.026413,38.979664]}},{"type":"Feature","properties":{"Record_ID":1249722,"Store_Name":"Ziway Market Inc 1","Store_Street_Address":"4626 14th St Nw","Additonal_Address":null,"City":"Washington","State":"DC","Zip_Code":"20011","Zip4":"4313","County":"DIST OF COLUMBIA","Store_Type":"Convenience Store","Latitude":38.946911,"Longitude":-77.032768,"Incentive_Program":null,"Grantee_Name":null,"ObjectId":239932},"geometry":{"type":"Point","coordinates":[-77.032768,38.946911]}},{"type":"Feature","properties":{"Record_ID":860853,"Store_Name":"14 & U Farmers Market","Store_Street_Address":"2000 14th St NW","Additonal_Address":null,"City":"Washington","State":"DC","Zip_Code":"20009","Zip4":"    ","County":"DIST OF COLUMBIA","Store_Type":"Farmers and Markets","Latitude":38.917572,"Longitude":-77.031967,"Incentive_Program":null,"Grantee_Name":null,"ObjectId":240387},"geometry":{"type":"Point","coordinates":[-77.031967,38.917572]}},{"type":"Feature","properties":{"Record_ID":839138,"Store_Name":"727 Market","Store_Street_Address":"2820 Georgia Ave NW","Additonal_Address":null,"City":"Washington","State":"DC","Zip_Code":"20001","Zip4":"3825","County":"DIST OF COLUMBIA","Store_Type":"Convenience Store","Latitude":38.926735,"Longitude":-77.022926,"Incentive_Program":null,"Grantee_Name":null,"ObjectId":240467},"geometry":{"type":"Point","coordinates":[-77.022926,38.926735]}},{"type":"Feature","properties":{"Record_ID":1077256,"Store_Name":"Avenue Supermarket","Store_Street_Address":"5010 New Hampshire Ave NW","Additonal_Address":null,"City":"Washington","State":"DC","Zip_Code":"20011","Zip4":"4118","County":"DIST OF COLUMBIA","Store_Type":"Grocery Store","Latitude":38.951416,"Longitude":-77.012299,"Incentive_Program":null,"Grantee_Name":null,"ObjectId":242266},"geometry":{"type":"Point","coordinates":[-77.012299,38.951416]}},{"type":"Feature","properties":{"Record_ID":802166,"Store_Name":"DELICIAS MARKET","Store_Street_Address":"5505 14th St NW","Additonal_Address":null,"City":"Washington","State":"DC","Zip_Code":"20011","Zip4":"6801","County":"DIST OF COLUMBIA","Store_Type":"Grocery Store","Latitude":38.956848,"Longitude":-77.033386,"Incentive_Program":null,"Grantee_Name":null,"ObjectId":242629},"geometry":{"type":"Point","coordinates":[-77.033386,38.956848]}},{"type":"Feature","properties":{"Record_ID":1568011,"Store_Name":"7-ELEVEN INC. 33192H","Store_Street_Address":"3012 14th St NW","Additonal_Address":null,"City":"Washington","State":"DC","Zip_Code":"20009","Zip4":"6819","County":"DIST OF COLUMBIA","Store_Type":"Convenience Store","Latitude":38.927654,"Longitude":-77.032738,"Incentive_Program":null,"Grantee_Name":null,"ObjectId":245639},"geometry":{"type":"Point","coordinates":[-77.032738,38.927654]}},{"type":"Feature","properties":{"Record_ID":1567600,"Store_Name":"Bloomingdale Farmers Market","Store_Street_Address":"105 R St NW","Additonal_Address":null,"City":"Washington","State":"DC","Zip_Code":"20001","Zip4":"1121","County":"DIST OF COLUMBIA","Store_Type":"Farmers and Markets","Latitude":38.912762,"Longitude":-77.012451,"Incentive_Program":null,"Grantee_Name":null,"ObjectId":245970},"geometry":{"type":"Point","coordinates":[-77.012451,38.912762]}},{"type":"Feature","properties":{"Record_ID":1566070,"Store_Name":"Maryland Ave Shell Convenience Store","Store_Street_Address":"1400 Maryland Ave NE","Additonal_Address":null,"City":"Washington","State":"DC","Zip_Code":"20002","Zip4":"5035","County":"DIST OF COLUMBIA","Store_Type":"Convenience Store","Latitude":38.899815,"Longitude":-76.985184,"Incentive_Program":null,"Grantee_Name":null,"ObjectId":246625},"geometry":{"type":"Point","coordinates":[-76.985184,38.899815]}},{"type":"Feature","properties":{"Record_ID":1573464,"Store_Name":"7ELEVEN INC. 34559L","Store_Street_Address":"1315 2nd St NE","Additonal_Address":null,"City":"Washington","State":"DC","Zip_Code":"20002","Zip4":"3487","County":"DIST OF COLUMBIA","Store_Type":"Convenience Store","Latitude":38.907703,"Longitude":-77.003281,"Incentive_Program":null,"Grantee_Name":null,"ObjectId":247252},"geometry":{"type":"Point","coordinates":[-77.003281,38.907703]}},{"type":"Feature","properties":{"Record_ID":1563524,"Store_Name":"24/7 DC Convenence 1","Store_Street_Address":"1805 Montana Ave NE","Additonal_Address":"Ste A","City":"Washington","State":"DC","Zip_Code":"20002","Zip4":"1859","County":"DIST OF COLUMBIA","Store_Type":"Convenience Store","Latitude":38.919407,"Longitude":-76.978943,"Incentive_Program":null,"Grantee_Name":null,"ObjectId":247792},"geometry":{"type":"Point","coordinates":[-76.978943,38.919407]}},{"type":"Feature","properties":{"Record_ID":1577290,"Store_Name":"Harar Grocery  Llc 1","Store_Street_Address":"626 Kennedy St NW","Additonal_Address":null,"City":"Washington","State":"DC","Zip_Code":"20011","Zip4":"3012","County":"DIST OF COLUMBIA","Store_Type":"Convenience Store","Latitude":38.956215,"Longitude":-77.022041,"Incentive_Program":null,"Grantee_Name":null,"ObjectId":248182},"geometry":{"type":"Point","coordinates":[-77.022041,38.956215]}},{"type":"Feature","properties":{"Record_ID":1582384,"Store_Name":"Centronia Market","Store_Street_Address":"1420 Columbia Rd Nw","Additonal_Address":null,"City":"Washington","State":"DC","Zip_Code":"20009","Zip4":"    ","County":"DIST OF COLUMBIA","Store_Type":"Farmers and Markets","Latitude":38.927189,"Longitude":-77.03347,"Incentive_Program":null,"Grantee_Name":null,"ObjectId":248332},"geometry":{"type":"Point","coordinates":[-77.03347,38.927189]}},{"type":"Feature","properties":{"Record_ID":1576518,"Store_Name":"Paradise Smoke & Vape","Store_Street_Address":"1821 W Virginia Ave NE","Additonal_Address":null,"City":"Washington","State":"DC","Zip_Code":"20002","Zip4":"1827","County":"DIST OF COLUMBIA","Store_Type":"Convenience Store","Latitude":38.910839,"Longitude":-76.984718,"Incentive_Program":null,"Grantee_Name":null,"ObjectId":248931},"geometry":{"type":"Point","coordinates":[-76.984718,38.910839]}},{"type":"Feature","properties":{"Record_ID":1587942,"Store_Name":"Freshfarm Centronia Stevens Elc Market","Store_Street_Address":"1050 21st St NW","Additonal_Address":null,"City":"Washington","State":"DC","Zip_Code":"20036","Zip4":"4904","County":"DIST OF COLUMBIA","Store_Type":"Farmers and Markets","Latitude":38.903168,"Longitude":-77.046974,"Incentive_Program":null,"Grantee_Name":null,"ObjectId":250976},"geometry":{"type":"Point","coordinates":[-77.046974,38.903168]}},{"type":"Feature","properties":{"Record_ID":1585265,"Store_Name":"RKMM Corporation 1","Store_Street_Address":"3021 Georgia Ave NW","Additonal_Address":null,"City":"Washington","State":"DC","Zip_Code":"20001","Zip4":"3807","County":"DIST OF COLUMBIA","Store_Type":"Convenience Store","Latitude":38.928837,"Longitude":-77.022934,"Incentive_Program":null,"Grantee_Name":null,"ObjectId":251081},"geometry":{"type":"Point","coordinates":[-77.022934,38.928837]}},{"type":"Feature","properties":{"Record_ID":1598345,"Store_Name":"Morazan Grocery Corp","Store_Street_Address":"3928 14th St NW","Additonal_Address":null,"City":"Washington","State":"DC","Zip_Code":"20011","Zip4":"5406","County":"DIST OF COLUMBIA","Store_Type":"Grocery Store","Latitude":38.939445,"Longitude":-77.033035,"Incentive_Program":null,"Grantee_Name":null,"ObjectId":251688},"geometry":{"type":"Point","coordinates":[-77.033035,38.939445]}},{"type":"Feature","properties":{"Record_ID":1611761,"Store_Name":"Lidl 1557","Store_Street_Address":"4000 Wisconsin Ave NW","Additonal_Address":null,"City":"Washington","State":"DC","Zip_Code":"20016","Zip4":"2800","County":"DIST OF COLUMBIA","Store_Type":"Super Store","Latitude":38.941711,"Longitude":-77.077255,"Incentive_Program":null,"Grantee_Name":null,"ObjectId":252437},"geometry":{"type":"Point","coordinates":[-77.077255,38.941711]}},{"type":"Feature","properties":{"Record_ID":1122923,"Store_Name":"Common Good City Farm","Store_Street_Address":"319 Oakdale Pl NW","Additonal_Address":null,"City":"Washington","State":"DC","Zip_Code":"20001","Zip4":"1719","County":"DIST OF COLUMBIA","Store_Type":"Farmers and Markets","Latitude":38.918152,"Longitude":-77.015823,"Incentive_Program":null,"Grantee_Name":null,"ObjectId":252780},"geometry":{"type":"Point","coordinates":[-77.015823,38.918152]}},{"type":"Feature","properties":{"Record_ID":1609713,"Store_Name":"Freshfarm Thearc Farm Market","Store_Street_Address":"1901 Miss Ave SE","Additonal_Address":null,"City":"Washington","State":"DC","Zip_Code":"20020","Zip4":"6117","County":"DIST OF COLUMBIA","Store_Type":"Farmers and Markets","Latitude":38.843563,"Longitude":-76.975327,"Incentive_Program":null,"Grantee_Name":null,"ObjectId":252781},"geometry":{"type":"Point","coordinates":[-76.975327,38.843563]}},{"type":"Feature","properties":{"Record_ID":1606400,"Store_Name":"Best Convenience Store","Store_Street_Address":"1535 U St SE","Additonal_Address":null,"City":"Washington","State":"DC","Zip_Code":"20020","Zip4":"4807","County":"DIST OF COLUMBIA","Store_Type":"Convenience Store","Latitude":38.865196,"Longitude":-76.982361,"Incentive_Program":null,"Grantee_Name":null,"ObjectId":252783},"geometry":{"type":"Point","coordinates":[-76.982361,38.865196]}},{"type":"Feature","properties":{"Record_ID":1348780,"Store_Name":"7 Eleven 37294J","Store_Street_Address":"2300 14th St NW","Additonal_Address":null,"City":"Washington","State":"DC","Zip_Code":"20009","Zip4":"4069","County":"DIST OF COLUMBIA","Store_Type":"Convenience Store","Latitude":38.920261,"Longitude":-77.032112,"Incentive_Program":null,"Grantee_Name":null,"ObjectId":252848},"geometry":{"type":"Point","coordinates":[-77.032112,38.920261]}},{"type":"Feature","properties":{"Record_ID":1598933,"Store_Name":"Columbia Heights Pharmacy","Store_Street_Address":"3316 14th St NW","Additonal_Address":null,"City":"Washington","State":"DC","Zip_Code":"20010","Zip4":"2302","County":"DIST OF COLUMBIA","Store_Type":"Other","Latitude":38.930767,"Longitude":-77.032967,"Incentive_Program":null,"Grantee_Name":null,"ObjectId":254454},"geometry":{"type":"Point","coordinates":[-77.032967,38.930767]}},{"type":"Feature","properties":{"Record_ID":1609720,"Store_Name":"Freshfarm Union Market District Farmers Market","Store_Street_Address":"1315 6th St Ne","Additonal_Address":null,"City":"Washington","State":"DC","Zip_Code":"20002","Zip4":"    ","County":"DIST OF COLUMBIA","Store_Type":"Farmers and Markets","Latitude":38.908669,"Longitude":-76.996498,"Incentive_Program":null,"Grantee_Name":null,"ObjectId":256149},"geometry":{"type":"Point","coordinates":[-76.996498,38.908669]}},{"type":"Feature","properties":{"Record_ID":1601555,"Store_Name":"Union Kitchen Eckington","Store_Street_Address":"1625 Eckington Pl NE","Additonal_Address":null,"City":"Washington","State":"DC","Zip_Code":"20002","Zip4":"2129","County":"DIST OF COLUMBIA","Store_Type":"Convenience Store","Latitude":38.912006,"Longitude":-77.004005,"Incentive_Program":null,"Grantee_Name":null,"ObjectId":256513},"geometry":{"type":"Point","coordinates":[-77.004005,38.912006]}},{"type":"Feature","properties":{"Record_ID":1614353,"Store_Name":"1 1","Store_Street_Address":"7712 Georgia Ave NW","Additonal_Address":null,"City":"Washington","State":"DC","Zip_Code":"20012","Zip4":"1612","County":"DIST OF COLUMBIA","Store_Type":"Other","Latitude":38.983196,"Longitude":-77.026848,"Incentive_Program":null,"Grantee_Name":null,"ObjectId":256560},"geometry":{"type":"Point","coordinates":[-77.026848,38.983196]}},{"type":"Feature","properties":{"Record_ID":665296,"Store_Name":"7-Eleven 23120B","Store_Street_Address":"1622 7th St NW","Additonal_Address":null,"City":"Washington","State":"DC","Zip_Code":"20001","Zip4":"3204","County":"DIST OF COLUMBIA","Store_Type":"Convenience Store","Latitude":38.911907,"Longitude":-77.022209,"Incentive_Program":null,"Grantee_Name":null,"ObjectId":257120},"geometry":{"type":"Point","coordinates":[-77.022209,38.911907]}},{"type":"Feature","properties":{"Record_ID":1622974,"Store_Name":"Souf East Earthlings BLK","Store_Street_Address":"413 Xenia St SE","Additonal_Address":null,"City":"Washington","State":"DC","Zip_Code":"20032","Zip4":"3723","County":"DIST OF COLUMBIA","Store_Type":"Farmers and Markets","Latitude":38.832809,"Longitude":-77.000008,"Incentive_Program":null,"Grantee_Name":null,"ObjectId":257156},"geometry":{"type":"Point","coordinates":[-77.000008,38.832809]}},{"type":"Feature","properties":{"Record_ID":1613999,"Store_Name":"Union Kitchen","Store_Street_Address":"538 3rd St NE","Additonal_Address":null,"City":"Washington","State":"DC","Zip_Code":"20002","Zip4":"4921","County":"DIST OF COLUMBIA","Store_Type":"Convenience Store","Latitude":38.897202,"Longitude":-77.002213,"Incentive_Program":null,"Grantee_Name":null,"ObjectId":257507},"geometry":{"type":"Point","coordinates":[-77.002213,38.897202]}},{"type":"Feature","properties":{"Record_ID":1621483,"Store_Name":"DT Market","Store_Street_Address":"2101 Alabama Ave SE","Additonal_Address":null,"City":"Washington","State":"DC","Zip_Code":"20020","Zip4":"2815","County":"DIST OF COLUMBIA","Store_Type":"Convenience Store","Latitude":38.850468,"Longitude":-76.975067,"Incentive_Program":null,"Grantee_Name":null,"ObjectId":258330},"geometry":{"type":"Point","coordinates":[-76.975067,38.850468]}},{"type":"Feature","properties":{"Record_ID":1620470,"Store_Name":"Brookland Supermarket & Deli","Store_Street_Address":"2815 7th St NE","Additonal_Address":null,"City":"Washington","State":"DC","Zip_Code":"20017","Zip4":"1309","County":"DIST OF COLUMBIA","Store_Type":"Convenience Store","Latitude":38.926132,"Longitude":-76.995872,"Incentive_Program":null,"Grantee_Name":null,"ObjectId":258570},"geometry":{"type":"Point","coordinates":[-76.995872,38.926132]}},{"type":"Feature","properties":{"Record_ID":717588,"Store_Name":"Stan Evans Seafood/DBA Jessie Taylor Seafood","Store_Street_Address":"1100 Maine Ave SW","Additonal_Address":"Ste 2","City":"Washington","State":"DC","Zip_Code":"20024","Zip4":"2423","County":"DIST OF COLUMBIA","Store_Type":"Other","Latitude":38.881226,"Longitude":-77.028053,"Incentive_Program":null,"Grantee_Name":null,"ObjectId":258931},"geometry":{"type":"Point","coordinates":[-77.028053,38.881226]}},{"type":"Feature","properties":{"Record_ID":1616939,"Store_Name":"Dollar Plus C Store 1","Store_Street_Address":"609 Division Ave NE","Additonal_Address":null,"City":"Washington","State":"DC","Zip_Code":"20019","Zip4":"5457","County":"DIST OF COLUMBIA","Store_Type":"Convenience Store","Latitude":38.89756,"Longitude":-76.925682,"Incentive_Program":null,"Grantee_Name":null,"ObjectId":259075},"geometry":{"type":"Point","coordinates":[-76.925682,38.89756]}},{"type":"Feature","properties":{"Record_ID":1616854,"Store_Name":"Super Convenience","Store_Street_Address":"5585 South Dakota Ave NE","Additonal_Address":null,"City":"Washington","State":"DC","Zip_Code":"20011","Zip4":"2601","County":"DIST OF COLUMBIA","Store_Type":"Convenience Store","Latitude":38.958317,"Longitude":-77.000854,"Incentive_Program":null,"Grantee_Name":null,"ObjectId":261373},"geometry":{"type":"Point","coordinates":[-77.000854,38.958317]}},{"type":"Feature","properties":{"Record_ID":1611389,"Store_Name":"Ajes LLC","Store_Street_Address":"3101 Rhode Island Ave NE","Additonal_Address":null,"City":"Washington","State":"DC","Zip_Code":"20018","Zip4":"2947","County":"DIST OF COLUMBIA","Store_Type":"Convenience Store","Latitude":38.934414,"Longitude":-76.964249,"Incentive_Program":null,"Grantee_Name":null,"ObjectId":262219},"geometry":{"type":"Point","coordinates":[-76.964249,38.934414]}},{"type":"Feature","properties":{"Record_ID":1622163,"Store_Name":"24/7 Convenience Store","Store_Street_Address":"5575 Central Ave SE","Additonal_Address":null,"City":"Washington","State":"DC","Zip_Code":"20019","Zip4":"6588","County":"DIST OF COLUMBIA","Store_Type":"Convenience Store","Latitude":38.885624,"Longitude":-76.91925,"Incentive_Program":null,"Grantee_Name":null,"ObjectId":262352},"geometry":{"type":"Point","coordinates":[-76.91925,38.885624]}},{"type":"Feature","properties":{"Record_ID":1642918,"Store_Name":"TRADER JOE'S WASHINGTON (BROOKLAND) 820","Store_Street_Address":"701 Monroe St NE","Additonal_Address":null,"City":"Washington","State":"DC","Zip_Code":"20017","Zip4":"1853","County":"DIST OF COLUMBIA","Store_Type":"Supermarket","Latitude":38.932137,"Longitude":-76.995872,"Incentive_Program":null,"Grantee_Name":null,"ObjectId":263275},"geometry":{"type":"Point","coordinates":[-76.995872,38.932137]}},{"type":"Feature","properties":{"Record_ID":1642923,"Store_Name":"TRADER JOE'S WASHINGTON (FRIENDSHIP HEIG 819","Store_Street_Address":"5335 Wisconsin Ave NW","Additonal_Address":null,"City":"Washington","State":"DC","Zip_Code":"20015","Zip4":"2030","County":"DIST OF COLUMBIA","Store_Type":"Supermarket","Latitude":38.960133,"Longitude":-77.084846,"Incentive_Program":null,"Grantee_Name":null,"ObjectId":263715},"geometry":{"type":"Point","coordinates":[-77.084846,38.960133]}},{"type":"Feature","properties":{"Record_ID":1626864,"Store_Name":"Sheriff Market","Store_Street_Address":"4748 Sheriff Rd NE","Additonal_Address":null,"City":"Washington","State":"DC","Zip_Code":"20019","Zip4":"3705","County":"DIST OF COLUMBIA","Store_Type":"Convenience Store","Latitude":38.903088,"Longitude":-76.934082,"Incentive_Program":null,"Grantee_Name":null,"ObjectId":264295},"geometry":{"type":"Point","coordinates":[-76.934082,38.903088]}},{"type":"Feature","properties":{"Record_ID":1623757,"Store_Name":"Freshfarm Educare Idea Market","Store_Street_Address":"4501 Lee St. Ne","Additonal_Address":null,"City":"Washington","State":"DC","Zip_Code":"20019","Zip4":"    ","County":"DIST OF COLUMBIA","Store_Type":"Farmers and Markets","Latitude":38.904705,"Longitude":-76.936913,"Incentive_Program":null,"Grantee_Name":null,"ObjectId":264296},"geometry":{"type":"Point","coordinates":[-76.936913,38.904705]}},{"type":"Feature","properties":{"Record_ID":1624986,"Store_Name":"Zemen Market","Store_Street_Address":"2401 Martin Luther King Jr Ave SE","Additonal_Address":null,"City":"Washington","State":"DC","Zip_Code":"20020","Zip4":"5815","County":"DIST OF COLUMBIA","Store_Type":"Convenience Store","Latitude":38.862923,"Longitude":-76.992561,"Incentive_Program":null,"Grantee_Name":null,"ObjectId":264299},"geometry":{"type":"Point","coordinates":[-76.992561,38.862923]}},{"type":"Feature","properties":{"Record_ID":1626362,"Store_Name":"Wheeler Liquor & Grocery","Store_Street_Address":"4137 Wheeler Rd SE","Additonal_Address":null,"City":"Washington","State":"DC","Zip_Code":"20032","Zip4":"4346","County":"DIST OF COLUMBIA","Store_Type":"Convenience Store","Latitude":38.83342,"Longitude":-76.990036,"Incentive_Program":null,"Grantee_Name":null,"ObjectId":264622},"geometry":{"type":"Point","coordinates":[-76.990036,38.83342]}},{"type":"Feature","properties":{"Record_ID":1625419,"Store_Name":"Brookland Market","Store_Street_Address":"3736 10th St NE","Additonal_Address":null,"City":"Washington","State":"DC","Zip_Code":"20017","Zip4":"1820","County":"DIST OF COLUMBIA","Store_Type":"Convenience Store","Latitude":38.936474,"Longitude":-76.993904,"Incentive_Program":null,"Grantee_Name":null,"ObjectId":264688},"geometry":{"type":"Point","coordinates":[-76.993904,38.936474]}}]}